[{"started_at": "2024-10-01 03:03:04.245000+00:00", "ended_at": "2024-10-01 03:09:37.088000+00:00", "duration": 392, "start_station_id": "34", "start_station_name": "Cornerteateret", "start_station_description": " Ved BI", "start_station_latitude": 60.38246949877819, "start_station_longitude": 5.3260934892086595, "end_station_id": "641", "end_station_name": "Krohnviken", "end_station_description": "Ved Solheimsviken bob\u00e5thavn", "end_station_latitude": 60.37810721367397, "end_station_longitude": 5.3310207695192275}, {"started_at": "2024-10-01 03:15:52.178000+00:00", "ended_at": "2024-10-01 03:28:05.064000+00:00", "duration": 732, "start_station_id": "220", "start_station_name": "M\u00f8llendalsplass", "start_station_description": "ved KMD Fakultetet", "start_station_latitude": 60.379894791874165, "start_station_longitude": 5.35207758319504, "end_station_id": "138", "end_station_name": "C. Sundts gate", "end_station_description": "Ved Nagelg\u00e5rden", "end_station_latitude": 60.39947506336557, "end_station_longitude": 5.308762204430565}, {"started_at": "2024-10-01 03:18:15.442000+00:00", "ended_at": "2024-10-01 03:35:15.045000+00:00", "duration": 1019, "start_station_id": "3397", "start_station_name": "Kristianborg bybanestopp", "start_station_description": "Foran garasjer ved Bybanestopp", "start_station_latitude": 60.35779657270476, "start_station_longitude": 5.342069876253731, "end_station_id": "789", "end_station_name": "Busstasjonen 1 Nord", "end_station_description": "Ved Bergen Busstasjon sin informasjon ", "end_station_latitude": 60.38890977889046, "end_station_longitude": 5.333817119783134}, {"started_at": "2024-10-01 03:21:52.050000+00:00", "ended_at": "2024-10-01 03:25:19.872000+00:00", "duration": 207, "start_station_id": "1045", "start_station_name": "Damsg\u00e5rdsveien 2", "start_station_description": "Ved Damsg\u00e5rdsveien 34", "start_station_latitude": 60.37802198798124, "start_station_longitude": 5.329383048102329, "end_station_id": "819", "end_station_name": "Thorm\u00f8hlens gate", "end_station_description": "Lang mur ved Fotballbanen", "end_station_latitude": 60.38316244112318, "end_station_longitude": 5.324053067317891}, {"started_at": "2024-10-01 03:34:49.515000+00:00", "ended_at": "2024-10-01 03:40:20.049000+00:00", "duration": 330, "start_station_id": "815", "start_station_name": "G\u00e5gaten", "start_station_description": "Strandgaten 60", "start_station_latitude": 60.395070112977045, "start_station_longitude": 5.31879835082907, "end_station_id": "83", "end_station_name": "Bergen jernbanestasjon", "end_station_description": "P\u00e5 h\u00f8yre side av hovedinngangen til Jernbanestasjonen", "end_station_latitude": 60.390414110522414, "end_station_longitude": 5.3326504538233905}, {"started_at": "2024-10-01 03:39:02.666000+00:00", "ended_at": "2024-10-01 03:42:29.179000+00:00", "duration": 206, "start_station_id": "150", "start_station_name": "Torget", "start_station_description": "Ved busstopp", "start_station_latitude": 60.39587808663882, "start_station_longitude": 5.325283812313046, "end_station_id": "83", "end_station_name": "Bergen jernbanestasjon", "end_station_description": "P\u00e5 h\u00f8yre side av hovedinngangen til Jernbanestasjonen", "end_station_latitude": 60.390414110522414, "end_station_longitude": 5.3326504538233905}, {"started_at": "2024-10-01 03:39:47.051000+00:00", "ended_at": "2024-10-01 03:46:07.596000+00:00", "duration": 380, "start_station_id": "5", "start_station_name": "Moxy Hotellet", "start_station_description": "P\u00e5 s\u00f8rsiden av hotellet ", "start_station_latitude": 60.37878279018753, "start_station_longitude": 5.3333274872102265, "end_station_id": "368", "end_station_name": "Festplassen", "end_station_description": "Festplassen", "end_station_latitude": 60.391123958982405, "end_station_longitude": 5.325713785893413}, {"started_at": "2024-10-01 03:47:27.662000+00:00", "ended_at": "2024-10-01 03:49:28.886000+00:00", "duration": 121, "start_station_id": "819", "start_station_name": "Thorm\u00f8hlens gate", "start_station_description": "Lang mur ved Fotballbanen", "start_station_latitude": 60.38316244112318, "start_station_longitude": 5.324053067317891, "end_station_id": "157", "end_station_name": "Florida Bybanestopp", "end_station_description": "ved Florida bybanestopp", "end_station_latitude": 60.382254745562825, "end_station_longitude": 5.3323324699108525}, {"started_at": "2024-10-01 03:48:24.446000+00:00", "ended_at": "2024-10-01 03:52:50.495000+00:00", "duration": 266, "start_station_id": "790", "start_station_name": "Busstasjonen 3  \u00d8st", "start_station_description": "Ved Taxiholdeplass", "start_station_latitude": 60.38785633733042, "start_station_longitude": 5.334459219764085, "end_station_id": "36", "end_station_name": "Torgallmenningen", "end_station_description": "Valkendorfsgaten / Torgallmenningen", "end_station_latitude": 60.39296632614153, "end_station_longitude": 5.323538420433351}, {"started_at": "2024-10-01 03:49:37.312000+00:00", "ended_at": "2024-10-01 03:54:05.324000+00:00", "duration": 268, "start_station_id": "817", "start_station_name": "Nedre Korskirkeallmenning", "start_station_description": "Nedre Korskirkeallmenning 8", "start_station_latitude": 60.394549852530844, "start_station_longitude": 5.327049981572372, "end_station_id": "301", "end_station_name": "Lars Hilles", "end_station_description": "Lars Hilles gate 18", "end_station_latitude": 60.388117889090395, "end_station_longitude": 5.331487235597251}, {"started_at": "2024-10-01 03:52:14.830000+00:00", "ended_at": "2024-10-01 04:04:39.538000+00:00", "duration": 744, "start_station_id": "117", "start_station_name": "Verftet", "start_station_description": "Ved kaien p\u00e5 ved Georgernes verft", "start_station_latitude": 60.395877002094046, "start_station_longitude": 5.307755827707297, "end_station_id": "87", "end_station_name": "AdO arena", "end_station_description": "Ved Amalie Skram vgs og Store Lungeg\u00e5rdsvann", "end_station_latitude": 60.38543124330305, "end_station_longitude": 5.337431780062616}, {"started_at": "2024-10-01 03:55:54.729000+00:00", "ended_at": "2024-10-01 04:02:21.906000+00:00", "duration": 387, "start_station_id": "817", "start_station_name": "Nedre Korskirkeallmenning", "start_station_description": "Nedre Korskirkeallmenning 8", "start_station_latitude": 60.394549852530844, "start_station_longitude": 5.327049981572372, "end_station_id": "75", "end_station_name": "Akvariet", "end_station_description": " Ved Akvariet og Havforskningsinstituttet", "end_station_latitude": 60.39987652272946, "end_station_longitude": 5.304686307890734}, {"started_at": "2024-10-01 03:58:18.148000+00:00", "ended_at": "2024-10-01 04:00:26.308000+00:00", "duration": 128, "start_station_id": "794", "start_station_name": "St. Jakobs Plass", "start_station_description": "Langs Folkeuniversitetet", "start_station_latitude": 60.386681495848364, "start_station_longitude": 5.3309780770646, "end_station_id": "87", "end_station_name": "AdO arena", "end_station_description": "Ved Amalie Skram vgs og Store Lungeg\u00e5rdsvann", "end_station_latitude": 60.38543124330305, "end_station_longitude": 5.337431780062616}, {"started_at": "2024-10-01 04:08:25.559000+00:00", "ended_at": "2024-10-01 04:11:49.549000+00:00", "duration": 203, "start_station_id": "1046", "start_station_name": "Ole Vigs gate", "start_station_description": "Ole Vigs Gate 4", "start_station_latitude": 60.385922875207626, "start_station_longitude": 5.321431717819451, "end_station_id": "132", "end_station_name": "N\u00f8stetorget", "end_station_description": "Sukkerhusbryggen", "end_station_latitude": 60.39228413403305, "end_station_longitude": 5.314705281519707}, {"started_at": "2024-10-01 04:14:01.522000+00:00", "ended_at": "2024-10-01 04:21:42.174000+00:00", "duration": 460, "start_station_id": "640", "start_station_name": "Damsg\u00e5rdsveien", "start_station_description": "Ved inngang Bunnpris", "start_station_latitude": 60.381511501995426, "start_station_longitude": 5.3194353641521275, "end_station_id": "1887", "end_station_name": "Puddefjordsbroen", "end_station_description": "ved Bredalsmarken 15", "end_station_latitude": 60.38591618700343, "end_station_longitude": 5.319206933440256}, {"started_at": "2024-10-01 04:17:21.527000+00:00", "ended_at": "2024-10-01 04:24:26.791000+00:00", "duration": 425, "start_station_id": "819", "start_station_name": "Thorm\u00f8hlens gate", "start_station_description": "Lang mur ved Fotballbanen", "start_station_latitude": 60.38316244112318, "start_station_longitude": 5.324053067317891, "end_station_id": "87", "end_station_name": "AdO arena", "end_station_description": "Ved Amalie Skram vgs og Store Lungeg\u00e5rdsvann", "end_station_latitude": 60.38543124330305, "end_station_longitude": 5.337431780062616}, {"started_at": "2024-10-01 04:17:30.505000+00:00", "ended_at": "2024-10-01 04:21:48.945000+00:00", "duration": 258, "start_station_id": "814", "start_station_name": "Nykirken", "start_station_description": "i Strandgaten", "start_station_latitude": 60.396949224333255, "start_station_longitude": 5.313494727727743, "end_station_id": "151", "end_station_name": "Sm\u00e5strandgaten", "end_station_description": "ved Xhibiton", "end_station_latitude": 60.39309812241306, "end_station_longitude": 5.327022724925882}, {"started_at": "2024-10-01 04:18:14.718000+00:00", "ended_at": "2024-10-01 04:36:19.280000+00:00", "duration": 1084, "start_station_id": "819", "start_station_name": "Thorm\u00f8hlens gate", "start_station_description": "Lang mur ved Fotballbanen", "start_station_latitude": 60.38316244112318, "start_station_longitude": 5.324053067317891, "end_station_id": "8", "end_station_name": "Haukeland sykehus", "end_station_description": "Ved HUD-bygget", "end_station_latitude": 60.373637920628255, "end_station_longitude": 5.35659456239955}, {"started_at": "2024-10-01 04:18:30.533000+00:00", "ended_at": "2024-10-01 04:20:49.264000+00:00", "duration": 138, "start_station_id": "819", "start_station_name": "Thorm\u00f8hlens gate", "start_station_description": "Lang mur ved Fotballbanen", "start_station_latitude": 60.38316244112318, "start_station_longitude": 5.324053067317891, "end_station_id": "157", "end_station_name": "Florida Bybanestopp", "end_station_description": "ved Florida bybanestopp", "end_station_latitude": 60.382254745562825, "end_station_longitude": 5.3323324699108525}, {"started_at": "2024-10-01 04:22:23.363000+00:00", "ended_at": "2024-10-01 04:30:23.431000+00:00", "duration": 480, "start_station_id": "83", "start_station_name": "Bergen jernbanestasjon", "start_station_description": "P\u00e5 h\u00f8yre side av hovedinngangen til Jernbanestasjonen", "start_station_latitude": 60.390414110522414, "start_station_longitude": 5.3326504538233905, "end_station_id": "814", "end_station_name": "Nykirken", "end_station_description": "i Strandgaten", "end_station_latitude": 60.396949224333255, "end_station_longitude": 5.313494727727743}, {"started_at": "2024-10-01 04:23:38.299000+00:00", "ended_at": "2024-10-01 04:29:13.973000+00:00", "duration": 335, "start_station_id": "788", "start_station_name": "Danmarksplass", "start_station_description": "Ved bybanestopp", "start_station_latitude": 60.376082994809856, "start_station_longitude": 5.339851409058042, "end_station_id": "819", "end_station_name": "Thorm\u00f8hlens gate", "end_station_description": "Lang mur ved Fotballbanen", "end_station_latitude": 60.38316244112318, "end_station_longitude": 5.324053067317891}, {"started_at": "2024-10-01 04:25:26.181000+00:00", "ended_at": "2024-10-01 04:29:30.219000+00:00", "duration": 244, "start_station_id": "1043", "start_station_name": "Comfort Hotel Bergen", "start_station_description": "Holbergsallmenningen bussholdeplass", "start_station_latitude": 60.396329429740746, "start_station_longitude": 5.315115500234867, "end_station_id": "131", "end_station_name": "Gulating", "end_station_description": "Gulatings plass ved R\u00e5dhuset", "end_station_latitude": 60.391983600413376, "end_station_longitude": 5.32661819461282}, {"started_at": "2024-10-01 04:29:31.072000+00:00", "ended_at": "2024-10-01 04:36:08.328000+00:00", "duration": 397, "start_station_id": "1046", "start_station_name": "Ole Vigs gate", "start_station_description": "Ole Vigs Gate 4", "start_station_latitude": 60.385922875207626, "start_station_longitude": 5.321431717819451, "end_station_id": "2313", "end_station_name": "Solheimsviken", "end_station_description": "Utenfor Beddingen", "end_station_latitude": 60.37708169275558, "end_station_longitude": 5.335575458852787}, {"started_at": "2024-10-01 04:29:47.769000+00:00", "ended_at": "2024-10-01 04:34:15.342000+00:00", "duration": 267, "start_station_id": "814", "start_station_name": "Nykirken", "start_station_description": "i Strandgaten", "start_station_latitude": 60.396949224333255, "start_station_longitude": 5.313494727727743, "end_station_id": "36", "end_station_name": "Torgallmenningen", "end_station_description": "Valkendorfsgaten / Torgallmenningen", "end_station_latitude": 60.39296632614153, "end_station_longitude": 5.323538420433351}, {"started_at": "2024-10-01 04:30:35.574000+00:00", "ended_at": "2024-10-01 04:38:03.357000+00:00", "duration": 447, "start_station_id": "368", "start_station_name": "Festplassen", "start_station_description": "Festplassen", "start_station_latitude": 60.391123958982405, "start_station_longitude": 5.325713785893413, "end_station_id": "138", "end_station_name": "C. Sundts gate", "end_station_description": "Ved Nagelg\u00e5rden", "end_station_latitude": 60.39947506336557, "end_station_longitude": 5.308762204430565}, {"started_at": "2024-10-01 04:31:04.653000+00:00", "ended_at": "2024-10-01 04:39:12.238000+00:00", "duration": 487, "start_station_id": "221", "start_station_name": "Sandvikstorget", "start_station_description": "ved Norges Fiskerimuseum", "start_station_latitude": 60.408582102784685, "start_station_longitude": 5.322648583141813, "end_station_id": "22", "end_station_name": "Skur 11", "end_station_description": "Nord for skur 11", "end_station_latitude": 60.396384231131684, "end_station_longitude": 5.324169337618514}, {"started_at": "2024-10-01 04:31:33.926000+00:00", "ended_at": "2024-10-01 04:50:32.388000+00:00", "duration": 1138, "start_station_id": "812", "start_station_name": "Hans Hauges gate", "start_station_description": "Jens Rolfens gate 6", "start_station_latitude": 60.40190553013225, "start_station_longitude": 5.324747767839426, "end_station_id": "24", "end_station_name": "Studentboligene", "end_station_description": "ved Gr\u00f8nneviken og KMD fakultetet", "end_station_latitude": 60.37831673774707, "end_station_longitude": 5.350897458652753}, {"started_at": "2024-10-01 04:32:38.040000+00:00", "ended_at": "2024-10-01 04:36:07.585000+00:00", "duration": 209, "start_station_id": "219", "start_station_name": "Jonsvollkvartalet", "start_station_description": "Jonsvollsgaten", "start_station_latitude": 60.39267683527631, "start_station_longitude": 5.317308285189142, "end_station_id": "151", "end_station_name": "Sm\u00e5strandgaten", "end_station_description": "ved Xhibiton", "end_station_latitude": 60.39309812241306, "end_station_longitude": 5.327022724925882}, {"started_at": "2024-10-01 04:33:04.865000+00:00", "ended_at": "2024-10-01 04:37:49.749000+00:00", "duration": 284, "start_station_id": "814", "start_station_name": "Nykirken", "start_station_description": "i Strandgaten", "start_station_latitude": 60.396949224333255, "start_station_longitude": 5.313494727727743, "end_station_id": "151", "end_station_name": "Sm\u00e5strandgaten", "end_station_description": "ved Xhibiton", "end_station_latitude": 60.39309812241306, "end_station_longitude": 5.327022724925882}, {"started_at": "2024-10-01 04:34:20.523000+00:00", "ended_at": "2024-10-01 04:41:44.777000+00:00", "duration": 444, "start_station_id": "82", "start_station_name": "Den Nationale Scene", "start_station_description": "ved hovedinngangen", "start_station_latitude": 60.39245536165015, "start_station_longitude": 5.320185176096857, "end_station_id": "87", "end_station_name": "AdO arena", "end_station_description": "Ved Amalie Skram vgs og Store Lungeg\u00e5rdsvann", "end_station_latitude": 60.38543124330305, "end_station_longitude": 5.337431780062616}, {"started_at": "2024-10-01 04:35:34.908000+00:00", "ended_at": "2024-10-01 04:39:19.995000+00:00", "duration": 225, "start_station_id": "83", "start_station_name": "Bergen jernbanestasjon", "start_station_description": "P\u00e5 h\u00f8yre side av hovedinngangen til Jernbanestasjonen", "start_station_latitude": 60.390414110522414, "start_station_longitude": 5.3326504538233905, "end_station_id": "7", "end_station_name": "Neumanns gate", "end_station_description": "Ved Konsertpaleet", "end_station_latitude": 60.39138580667719, "end_station_longitude": 5.319194867192266}, {"started_at": "2024-10-01 04:36:06.644000+00:00", "ended_at": "2024-10-01 04:48:10.935000+00:00", "duration": 724, "start_station_id": "1894", "start_station_name": "Kong Oscars gate", "start_station_description": "Ved Kong Oscars gate 36", "start_station_latitude": 60.393323250707, "start_station_longitude": 5.330654155344547, "end_station_id": "2313", "end_station_name": "Solheimsviken", "end_station_description": "Utenfor Beddingen", "end_station_latitude": 60.37708169275558, "end_station_longitude": 5.335575458852787}, {"started_at": "2024-10-01 04:36:55.492000+00:00", "ended_at": "2024-10-01 04:46:10.895000+00:00", "duration": 555, "start_station_id": "215", "start_station_name": "Nonneseterplass", "start_station_description": "ved Jernbanestasjonen og Bystasjonen", "start_station_latitude": 60.38967202352878, "start_station_longitude": 5.3336050852019525, "end_station_id": "2322", "end_station_name": "H\u00f8yteknologisenteret", "end_station_description": "Utenfor hovedinngang", "end_station_latitude": 60.38174958551062, "end_station_longitude": 5.331698655041777}, {"started_at": "2024-10-01 04:42:04.286000+00:00", "ended_at": "2024-10-01 04:55:20.701000+00:00", "duration": 796, "start_station_id": "640", "start_station_name": "Damsg\u00e5rdsveien", "start_station_description": "Ved inngang Bunnpris", "start_station_latitude": 60.381511501995426, "start_station_longitude": 5.3194353641521275, "end_station_id": "220", "end_station_name": "M\u00f8llendalsplass", "end_station_description": "ved KMD Fakultetet", "end_station_latitude": 60.379894791874165, "end_station_longitude": 5.35207758319504}, {"started_at": "2024-10-01 04:42:53.572000+00:00", "ended_at": "2024-10-01 04:48:44.990000+00:00", "duration": 351, "start_station_id": "808", "start_station_name": "Damsg\u00e5rdsveien 71", "start_station_description": "By walkway to Damsg\u00e5rdsveien 69-71", "start_station_latitude": 60.380262713779956, "start_station_longitude": 5.323223146883635, "end_station_id": "2313", "end_station_name": "Solheimsviken", "end_station_description": "Utenfor Beddingen", "end_station_latitude": 60.37708169275558, "end_station_longitude": 5.335575458852787}, {"started_at": "2024-10-01 04:43:48.191000+00:00", "ended_at": "2024-10-01 04:49:31.268000+00:00", "duration": 343, "start_station_id": "368", "start_station_name": "Festplassen", "start_station_description": "Festplassen", "start_station_latitude": 60.391123958982405, "start_station_longitude": 5.325713785893413, "end_station_id": "217", "end_station_name": "Nykirkekaien", "end_station_description": "Langs C. Sundts gate", "end_station_latitude": 60.39705738914522, "end_station_longitude": 5.314548482139799}, {"started_at": "2024-10-01 04:43:56.843000+00:00", "ended_at": "2024-10-01 04:49:48.772000+00:00", "duration": 351, "start_station_id": "816", "start_station_name": "\u00d8stre Murallmenningen nedre", "start_station_description": "Ved inngang G\u00e5gaten", "start_station_latitude": 60.395143864343254, "start_station_longitude": 5.320002322335455, "end_station_id": "789", "end_station_name": "Busstasjonen 1 Nord", "end_station_description": "Ved Bergen Busstasjon sin informasjon ", "end_station_latitude": 60.38890977889046, "end_station_longitude": 5.333817119783134}, {"started_at": "2024-10-01 04:46:37.353000+00:00", "ended_at": "2024-10-01 04:53:11.615000+00:00", "duration": 394, "start_station_id": "790", "start_station_name": "Busstasjonen 3  \u00d8st", "start_station_description": "Ved Taxiholdeplass", "start_station_latitude": 60.38785633733042, "start_station_longitude": 5.334459219764085, "end_station_id": "219", "end_station_name": "Jonsvollkvartalet", "end_station_description": "Jonsvollsgaten", "end_station_latitude": 60.39267683527631, "end_station_longitude": 5.317308285189142}, {"started_at": "2024-10-01 04:47:53.073000+00:00", "ended_at": "2024-10-01 04:49:59.409000+00:00", "duration": 126, "start_station_id": "814", "start_station_name": "Nykirken", "start_station_description": "i Strandgaten", "start_station_latitude": 60.396949224333255, "start_station_longitude": 5.313494727727743, "end_station_id": "815", "end_station_name": "G\u00e5gaten", "end_station_description": "Strandgaten 60", "end_station_latitude": 60.395070112977045, "end_station_longitude": 5.31879835082907}, {"started_at": "2024-10-01 04:48:06.519000+00:00", "ended_at": "2024-10-01 04:55:40.232000+00:00", "duration": 453, "start_station_id": "368", "start_station_name": "Festplassen", "start_station_description": "Festplassen", "start_station_latitude": 60.391123958982405, "start_station_longitude": 5.325713785893413, "end_station_id": "138", "end_station_name": "C. Sundts gate", "end_station_description": "Ved Nagelg\u00e5rden", "end_station_latitude": 60.39947506336557, "end_station_longitude": 5.308762204430565}, {"started_at": "2024-10-01 04:50:38.842000+00:00", "ended_at": "2024-10-01 05:06:32.226000+00:00", "duration": 953, "start_station_id": "132", "start_station_name": "N\u00f8stetorget", "start_station_description": "Sukkerhusbryggen", "start_station_latitude": 60.39228413403305, "start_station_longitude": 5.314705281519707, "end_station_id": "70", "end_station_name": "Laksev\u00e5g senter", "end_station_description": "Ved inngangen til Laksev\u00e5g senter", "end_station_latitude": 60.38963215691683, "end_station_longitude": 5.286516470683409}, {"started_at": "2024-10-01 04:51:19.037000+00:00", "ended_at": "2024-10-01 04:57:16.451000+00:00", "duration": 357, "start_station_id": "33", "start_station_name": "H\u00f8gskulen p\u00e5 Vestlandet", "start_station_description": "Ved hovedinngang til skolen", "start_station_latitude": 60.369179844976586, "start_station_longitude": 5.349443793165847, "end_station_id": "2313", "end_station_name": "Solheimsviken", "end_station_description": "Utenfor Beddingen", "end_station_latitude": 60.37708169275558, "end_station_longitude": 5.335575458852787}, {"started_at": "2024-10-01 04:51:37.936000+00:00", "ended_at": "2024-10-01 04:54:58.245000+00:00", "duration": 200, "start_station_id": "646", "start_station_name": "Bj\u00f8rnsonsgate", "start_station_description": "Ved \u00c5rstad VGS", "start_station_latitude": 60.373985939857135, "start_station_longitude": 5.342082137178068, "end_station_id": "5", "end_station_name": "Moxy Hotellet", "end_station_description": "P\u00e5 s\u00f8rsiden av hotellet ", "end_station_latitude": 60.37878279018753, "end_station_longitude": 5.3333274872102265}, {"started_at": "2024-10-01 04:53:57.505000+00:00", "ended_at": "2024-10-01 04:58:53.619000+00:00", "duration": 296, "start_station_id": "368", "start_station_name": "Festplassen", "start_station_description": "Festplassen", "start_station_latitude": 60.391123958982405, "start_station_longitude": 5.325713785893413, "end_station_id": "794", "end_station_name": "St. Jakobs Plass", "end_station_description": "Langs Folkeuniversitetet", "end_station_latitude": 60.386681495848364, "end_station_longitude": 5.3309780770646}, {"started_at": "2024-10-01 04:54:07.144000+00:00", "ended_at": "2024-10-01 05:00:26.022000+00:00", "duration": 378, "start_station_id": "807", "start_station_name": "Dreggsallmenningen Nord", "start_station_description": "Vis a vis Bryggen Museum", "start_station_latitude": 60.398656493732524, "start_station_longitude": 5.3221425864564935, "end_station_id": "810", "end_station_name": "Amalie Skrams vei S\u00f8r", "end_station_description": "Amalie Skrams vei 1", "end_station_latitude": 60.408096993005785, "end_station_longitude": 5.325510899047174}, {"started_at": "2024-10-01 04:54:21.376000+00:00", "ended_at": "2024-10-01 05:00:00.951000+00:00", "duration": 339, "start_station_id": "220", "start_station_name": "M\u00f8llendalsplass", "start_station_description": "ved KMD Fakultetet", "start_station_latitude": 60.379894791874165, "start_station_longitude": 5.35207758319504, "end_station_id": "5", "end_station_name": "Moxy Hotellet", "end_station_description": "P\u00e5 s\u00f8rsiden av hotellet ", "end_station_latitude": 60.37878279018753, "end_station_longitude": 5.3333274872102265}, {"started_at": "2024-10-01 04:54:59.503000+00:00", "ended_at": "2024-10-01 05:00:10.314000+00:00", "duration": 310, "start_station_id": "1043", "start_station_name": "Comfort Hotel Bergen", "start_station_description": "Holbergsallmenningen bussholdeplass", "start_station_latitude": 60.396329429740746, "start_station_longitude": 5.315115500234867, "end_station_id": "83", "end_station_name": "Bergen jernbanestasjon", "end_station_description": "P\u00e5 h\u00f8yre side av hovedinngangen til Jernbanestasjonen", "end_station_latitude": 60.390414110522414, "end_station_longitude": 5.3326504538233905}, {"started_at": "2024-10-01 04:56:01.303000+00:00", "ended_at": "2024-10-01 04:59:08.548000+00:00", "duration": 187, "start_station_id": "816", "start_station_name": "\u00d8stre Murallmenningen nedre", "start_station_description": "Ved inngang G\u00e5gaten", "start_station_latitude": 60.395143864343254, "start_station_longitude": 5.320002322335455, "end_station_id": "817", "end_station_name": "Nedre Korskirkeallmenning", "end_station_description": "Nedre Korskirkeallmenning 8", "end_station_latitude": 60.394549852530844, "end_station_longitude": 5.327049981572372}, {"started_at": "2024-10-01 04:56:47.825000+00:00", "ended_at": "2024-10-01 05:02:20.482000+00:00", "duration": 332, "start_station_id": "138", "start_station_name": "C. Sundts gate", "start_station_description": "Ved Nagelg\u00e5rden", "start_station_latitude": 60.39947506336557, "start_station_longitude": 5.308762204430565, "end_station_id": "36", "end_station_name": "Torgallmenningen", "end_station_description": "Valkendorfsgaten / Torgallmenningen", "end_station_latitude": 60.39296632614153, "end_station_longitude": 5.323538420433351}, {"started_at": "2024-10-01 04:57:15.503000+00:00", "ended_at": "2024-10-01 05:02:13.141000+00:00", "duration": 297, "start_station_id": "1047", "start_station_name": "Welhavens gate 64", "start_station_description": "Langs gatetun", "start_station_latitude": 60.38445114789948, "start_station_longitude": 5.324440726278226, "end_station_id": "2313", "end_station_name": "Solheimsviken", "end_station_description": "Utenfor Beddingen", "end_station_latitude": 60.37708169275558, "end_station_longitude": 5.335575458852787}, {"started_at": "2024-10-01 04:58:12.761000+00:00", "ended_at": "2024-10-01 05:00:16.614000+00:00", "duration": 123, "start_station_id": "157", "start_station_name": "Florida Bybanestopp", "start_station_description": "ved Florida bybanestopp", "start_station_latitude": 60.382254745562825, "start_station_longitude": 5.3323324699108525, "end_station_id": "34", "end_station_name": "Cornerteateret", "end_station_description": " Ved BI", "end_station_latitude": 60.38246949877819, "end_station_longitude": 5.3260934892086595}, {"started_at": "2024-10-01 04:58:28.136000+00:00", "ended_at": "2024-10-01 05:05:52.777000+00:00", "duration": 444, "start_station_id": "1045", "start_station_name": "Damsg\u00e5rdsveien 2", "start_station_description": "Ved Damsg\u00e5rdsveien 34", "start_station_latitude": 60.37802198798124, "start_station_longitude": 5.329383048102329, "end_station_id": "789", "end_station_name": "Busstasjonen 1 Nord", "end_station_description": "Ved Bergen Busstasjon sin informasjon ", "end_station_latitude": 60.38890977889046, "end_station_longitude": 5.333817119783134}, {"started_at": "2024-10-01 05:00:01.426000+00:00", "ended_at": "2024-10-01 05:04:59.166000+00:00", "duration": 297, "start_station_id": "802", "start_station_name": "H\u00e5konsgaten", "start_station_description": "Ved inngang Bergen Kino", "start_station_latitude": 60.39118461048114, "start_station_longitude": 5.318026298282803, "end_station_id": "150", "end_station_name": "Torget", "end_station_description": "Ved busstopp", "end_station_latitude": 60.39587808663882, "end_station_longitude": 5.325283812313046}, {"started_at": "2024-10-01 05:00:35.928000+00:00", "ended_at": "2024-10-01 05:03:13.519000+00:00", "duration": 157, "start_station_id": "1045", "start_station_name": "Damsg\u00e5rdsveien 2", "start_station_description": "Ved Damsg\u00e5rdsveien 34", "start_station_latitude": 60.37802198798124, "start_station_longitude": 5.329383048102329, "end_station_id": "5", "end_station_name": "Moxy Hotellet", "end_station_description": "P\u00e5 s\u00f8rsiden av hotellet ", "end_station_latitude": 60.37878279018753, "end_station_longitude": 5.3333274872102265}, {"started_at": "2024-10-01 05:00:36.046000+00:00", "ended_at": "2024-10-01 05:18:51.368000+00:00", "duration": 1095, "start_station_id": "814", "start_station_name": "Nykirken", "start_station_description": "i Strandgaten", "start_station_latitude": 60.396949224333255, "start_station_longitude": 5.313494727727743, "end_station_id": "3396", "end_station_name": "Kronstad bybanestopp", "end_station_description": "Ved siden av sykkelskur", "end_station_latitude": 60.37178687508714, "end_station_longitude": 5.349552885719248}, {"started_at": "2024-10-01 05:01:40.714000+00:00", "ended_at": "2024-10-01 05:03:42.376000+00:00", "duration": 121, "start_station_id": "138", "start_station_name": "C. Sundts gate", "start_station_description": "Ved Nagelg\u00e5rden", "start_station_latitude": 60.39947506336557, "start_station_longitude": 5.308762204430565, "end_station_id": "217", "end_station_name": "Nykirkekaien", "end_station_description": "Langs C. Sundts gate", "end_station_latitude": 60.39705738914522, "end_station_longitude": 5.314548482139799}, {"started_at": "2024-10-01 05:01:59.181000+00:00", "ended_at": "2024-10-01 05:10:23.631000+00:00", "duration": 504, "start_station_id": "36", "start_station_name": "Torgallmenningen", "start_station_description": "Valkendorfsgaten / Torgallmenningen", "start_station_latitude": 60.39296632614153, "start_station_longitude": 5.323538420433351, "end_station_id": "2313", "end_station_name": "Solheimsviken", "end_station_description": "Utenfor Beddingen", "end_station_latitude": 60.37708169275558, "end_station_longitude": 5.335575458852787}, {"started_at": "2024-10-01 05:02:39.918000+00:00", "ended_at": "2024-10-01 05:12:56.259000+00:00", "duration": 616, "start_station_id": "221", "start_station_name": "Sandvikstorget", "start_station_description": "ved Norges Fiskerimuseum", "start_station_latitude": 60.408582102784685, "start_station_longitude": 5.322648583141813, "end_station_id": "368", "end_station_name": "Festplassen", "end_station_description": "Festplassen", "end_station_latitude": 60.391123958982405, "end_station_longitude": 5.325713785893413}, {"started_at": "2024-10-01 05:03:04.008000+00:00", "ended_at": "2024-10-01 05:10:12.221000+00:00", "duration": 428, "start_station_id": "1816", "start_station_name": "Hansaparken", "start_station_description": "I gangtunell ved butikk", "start_station_latitude": 60.38604412210008, "start_station_longitude": 5.349253890141261, "end_station_id": "5", "end_station_name": "Moxy Hotellet", "end_station_description": "P\u00e5 s\u00f8rsiden av hotellet ", "end_station_latitude": 60.37878279018753, "end_station_longitude": 5.3333274872102265}, {"started_at": "2024-10-01 05:03:24.957000+00:00", "ended_at": "2024-10-01 05:07:37.121000+00:00", "duration": 252, "start_station_id": "808", "start_station_name": "Damsg\u00e5rdsveien 71", "start_station_description": "By walkway to Damsg\u00e5rdsveien 69-71", "start_station_latitude": 60.380262713779956, "start_station_longitude": 5.323223146883635, "end_station_id": "157", "end_station_name": "Florida Bybanestopp", "end_station_description": "ved Florida bybanestopp", "end_station_latitude": 60.382254745562825, "end_station_longitude": 5.3323324699108525}, {"started_at": "2024-10-01 05:04:17.170000+00:00", "ended_at": "2024-10-01 05:15:37.421000+00:00", "duration": 680, "start_station_id": "644", "start_station_name": "Solheimsgaten (ved Extra)", "start_station_description": "Utenfor COOP Extra", "start_station_latitude": 60.37514055132067, "start_station_longitude": 5.338517421420761, "end_station_id": "132", "end_station_name": "N\u00f8stetorget", "end_station_description": "Sukkerhusbryggen", "end_station_latitude": 60.39228413403305, "end_station_longitude": 5.314705281519707}, {"started_at": "2024-10-01 05:05:03.783000+00:00", "ended_at": "2024-10-01 05:09:10.977000+00:00", "duration": 247, "start_station_id": "641", "start_station_name": "Krohnviken", "start_station_description": "Ved Solheimsviken bob\u00e5thavn", "start_station_latitude": 60.37810721367397, "start_station_longitude": 5.3310207695192275, "end_station_id": "214", "end_station_name": "Nyg\u00e5rdsporten", "end_station_description": "P\u00e5 \u00f8stsiden av Nyg\u00e5rdsgaten", "end_station_latitude": 60.3839343833222, "end_station_longitude": 5.333450454511649}, {"started_at": "2024-10-01 05:05:06.465000+00:00", "ended_at": "2024-10-01 05:10:20.904000+00:00", "duration": 314, "start_station_id": "83", "start_station_name": "Bergen jernbanestasjon", "start_station_description": "P\u00e5 h\u00f8yre side av hovedinngangen til Jernbanestasjonen", "start_station_latitude": 60.390414110522414, "start_station_longitude": 5.3326504538233905, "end_station_id": "1043", "end_station_name": "Comfort Hotel Bergen", "end_station_description": "Holbergsallmenningen bussholdeplass", "end_station_latitude": 60.396329429740746, "end_station_longitude": 5.315115500234867}, {"started_at": "2024-10-01 05:05:26.263000+00:00", "ended_at": "2024-10-01 05:14:55.351000+00:00", "duration": 569, "start_station_id": "3396", "start_station_name": "Kronstad bybanestopp", "start_station_description": "Ved siden av sykkelskur", "start_station_latitude": 60.37178687508714, "start_station_longitude": 5.349552885719248, "end_station_id": "789", "end_station_name": "Busstasjonen 1 Nord", "end_station_description": "Ved Bergen Busstasjon sin informasjon ", "end_station_latitude": 60.38890977889046, "end_station_longitude": 5.333817119783134}, {"started_at": "2024-10-01 05:06:17.990000+00:00", "ended_at": "2024-10-01 05:15:54.152000+00:00", "duration": 576, "start_station_id": "140", "start_station_name": "Sandviksbodene", "start_station_description": "Sj\u00f8gaten 2A", "start_station_latitude": 60.40569501689435, "start_station_longitude": 5.323373526334763, "end_station_id": "36", "end_station_name": "Torgallmenningen", "end_station_description": "Valkendorfsgaten / Torgallmenningen", "end_station_latitude": 60.39296632614153, "end_station_longitude": 5.323538420433351}, {"started_at": "2024-10-01 05:06:33.212000+00:00", "ended_at": "2024-10-01 05:24:24.791000+00:00", "duration": 1071, "start_station_id": "810", "start_station_name": "Amalie Skrams vei S\u00f8r", "start_station_description": "Amalie Skrams vei 1", "start_station_latitude": 60.408096993005785, "start_station_longitude": 5.325510899047174, "end_station_id": "5", "end_station_name": "Moxy Hotellet", "end_station_description": "P\u00e5 s\u00f8rsiden av hotellet ", "end_station_latitude": 60.37878279018753, "end_station_longitude": 5.3333274872102265}, {"started_at": "2024-10-01 05:06:49.355000+00:00", "ended_at": "2024-10-01 05:13:24.132000+00:00", "duration": 394, "start_station_id": "131", "start_station_name": "Gulating", "start_station_description": "Gulatings plass ved R\u00e5dhuset", "start_station_latitude": 60.391983600413376, "start_station_longitude": 5.32661819461282, "end_station_id": "138", "end_station_name": "C. Sundts gate", "end_station_description": "Ved Nagelg\u00e5rden", "end_station_latitude": 60.39947506336557, "end_station_longitude": 5.308762204430565}, {"started_at": "2024-10-01 05:07:30.238000+00:00", "ended_at": "2024-10-01 05:11:58.376000+00:00", "duration": 268, "start_station_id": "116", "start_station_name": "Lysverket", "start_station_description": "Gamle Lysverket, ved KODE", "start_station_latitude": 60.38962622255798, "start_station_longitude": 5.3298637396027, "end_station_id": "219", "end_station_name": "Jonsvollkvartalet", "end_station_description": "Jonsvollsgaten", "end_station_latitude": 60.39267683527631, "end_station_longitude": 5.317308285189142}, {"started_at": "2024-10-01 05:08:43.839000+00:00", "ended_at": "2024-10-01 05:10:41.649000+00:00", "duration": 117, "start_station_id": "814", "start_station_name": "Nykirken", "start_station_description": "i Strandgaten", "start_station_latitude": 60.396949224333255, "start_station_longitude": 5.313494727727743, "end_station_id": "816", "end_station_name": "\u00d8stre Murallmenningen nedre", "end_station_description": "Ved inngang G\u00e5gaten", "end_station_latitude": 60.395143864343254, "end_station_longitude": 5.320002322335455}, {"started_at": "2024-10-01 05:09:57.193000+00:00", "ended_at": "2024-10-01 05:14:07.289000+00:00", "duration": 250, "start_station_id": "138", "start_station_name": "C. Sundts gate", "start_station_description": "Ved Nagelg\u00e5rden", "start_station_latitude": 60.39947506336557, "start_station_longitude": 5.308762204430565, "end_station_id": "816", "end_station_name": "\u00d8stre Murallmenningen nedre", "end_station_description": "Ved inngang G\u00e5gaten", "end_station_latitude": 60.395143864343254, "end_station_longitude": 5.320002322335455}, {"started_at": "2024-10-01 05:10:23.695000+00:00", "ended_at": "2024-10-01 05:19:01.141000+00:00", "duration": 517, "start_station_id": "812", "start_station_name": "Hans Hauges gate", "start_station_description": "Jens Rolfens gate 6", "start_station_latitude": 60.40190553013225, "start_station_longitude": 5.324747767839426, "end_station_id": "87", "end_station_name": "AdO arena", "end_station_description": "Ved Amalie Skram vgs og Store Lungeg\u00e5rdsvann", "end_station_latitude": 60.38543124330305, "end_station_longitude": 5.337431780062616}, {"started_at": "2024-10-01 05:11:02.603000+00:00", "ended_at": "2024-10-01 05:20:58.238000+00:00", "duration": 595, "start_station_id": "214", "start_station_name": "Nyg\u00e5rdsporten", "start_station_description": "P\u00e5 \u00f8stsiden av Nyg\u00e5rdsgaten", "start_station_latitude": 60.3839343833222, "start_station_longitude": 5.333450454511649, "end_station_id": "802", "end_station_name": "H\u00e5konsgaten", "end_station_description": "Ved inngang Bergen Kino", "end_station_latitude": 60.39118461048114, "end_station_longitude": 5.318026298282803}, {"started_at": "2024-10-01 05:11:09.649000+00:00", "ended_at": "2024-10-01 05:16:42.286000+00:00", "duration": 332, "start_station_id": "22", "start_station_name": "Skur 11", "start_station_description": "Nord for skur 11", "start_station_latitude": 60.396384231131684, "start_station_longitude": 5.324169337618514, "end_station_id": "5255", "end_station_name": "Tollbodalmenningen", "end_station_description": "Ved siden av lekeplass", "end_station_latitude": 60.39922323697098, "end_station_longitude": 5.3105257209258525}, {"started_at": "2024-10-01 05:12:04.440000+00:00", "ended_at": "2024-10-01 05:20:02.081000+00:00", "duration": 477, "start_station_id": "1045", "start_station_name": "Damsg\u00e5rdsveien 2", "start_station_description": "Ved Damsg\u00e5rdsveien 34", "start_station_latitude": 60.37802198798124, "start_station_longitude": 5.329383048102329, "end_station_id": "3396", "end_station_name": "Kronstad bybanestopp", "end_station_description": "Ved siden av sykkelskur", "end_station_latitude": 60.37178687508714, "end_station_longitude": 5.349552885719248}, {"started_at": "2024-10-01 05:12:09.297000+00:00", "ended_at": "2024-10-01 05:16:56.475000+00:00", "duration": 287, "start_station_id": "1896", "start_station_name": "Takhagen p\u00e5 Nordnes", "start_station_description": "P\u00e5 taket av Nordneshallen ", "start_station_latitude": 60.39886453454994, "start_station_longitude": 5.306410871328268, "end_station_id": "36", "end_station_name": "Torgallmenningen", "end_station_description": "Valkendorfsgaten / Torgallmenningen", "end_station_latitude": 60.39296632614153, "end_station_longitude": 5.323538420433351}, {"started_at": "2024-10-01 05:12:55.220000+00:00", "ended_at": "2024-10-01 05:24:46.546000+00:00", "duration": 711, "start_station_id": "641", "start_station_name": "Krohnviken", "start_station_description": "Ved Solheimsviken bob\u00e5thavn", "start_station_latitude": 60.37810721367397, "start_station_longitude": 5.3310207695192275, "end_station_id": "1894", "end_station_name": "Kong Oscars gate", "end_station_description": "Ved Kong Oscars gate 36", "end_station_latitude": 60.393323250707, "end_station_longitude": 5.330654155344547}, {"started_at": "2024-10-01 05:13:19.644000+00:00", "ended_at": "2024-10-01 05:20:33.672000+00:00", "duration": 434, "start_station_id": "814", "start_station_name": "Nykirken", "start_station_description": "i Strandgaten", "start_station_latitude": 60.396949224333255, "start_station_longitude": 5.313494727727743, "end_station_id": "83", "end_station_name": "Bergen jernbanestasjon", "end_station_description": "P\u00e5 h\u00f8yre side av hovedinngangen til Jernbanestasjonen", "end_station_latitude": 60.390414110522414, "end_station_longitude": 5.3326504538233905}, {"started_at": "2024-10-01 05:14:11.790000+00:00", "ended_at": "2024-10-01 05:25:26.009000+00:00", "duration": 674, "start_station_id": "220", "start_station_name": "M\u00f8llendalsplass", "start_station_description": "ved KMD Fakultetet", "start_station_latitude": 60.379894791874165, "start_station_longitude": 5.35207758319504, "end_station_id": "797", "end_station_name": "John Lunds plass", "end_station_description": "John Lunds plass", "end_station_latitude": 60.38824732496974, "end_station_longitude": 5.324558211682643}, {"started_at": "2024-10-01 05:14:31.614000+00:00", "ended_at": "2024-10-01 05:21:16.860000+00:00", "duration": 405, "start_station_id": "816", "start_station_name": "\u00d8stre Murallmenningen nedre", "start_station_description": "Ved inngang G\u00e5gaten", "start_station_latitude": 60.395143864343254, "start_station_longitude": 5.320002322335455, "end_station_id": "75", "end_station_name": "Akvariet", "end_station_description": " Ved Akvariet og Havforskningsinstituttet", "end_station_latitude": 60.39987652272946, "end_station_longitude": 5.304686307890734}, {"started_at": "2024-10-01 05:14:37.761000+00:00", "ended_at": "2024-10-01 05:22:00.327000+00:00", "duration": 442, "start_station_id": "794", "start_station_name": "St. Jakobs Plass", "start_station_description": "Langs Folkeuniversitetet", "start_station_latitude": 60.386681495848364, "start_station_longitude": 5.3309780770646, "end_station_id": "807", "end_station_name": "Dreggsallmenningen Nord", "end_station_description": "Vis a vis Bryggen Museum", "end_station_latitude": 60.398656493732524, "end_station_longitude": 5.3221425864564935}, {"started_at": "2024-10-01 05:14:40.427000+00:00", "ended_at": "2024-10-01 05:21:37.191000+00:00", "duration": 416, "start_station_id": "816", "start_station_name": "\u00d8stre Murallmenningen nedre", "start_station_description": "Ved inngang G\u00e5gaten", "start_station_latitude": 60.395143864343254, "start_station_longitude": 5.320002322335455, "end_station_id": "794", "end_station_name": "St. Jakobs Plass", "end_station_description": "Langs Folkeuniversitetet", "end_station_latitude": 60.386681495848364, "end_station_longitude": 5.3309780770646}, {"started_at": "2024-10-01 05:15:14.149000+00:00", "ended_at": "2024-10-01 05:22:27.586000+00:00", "duration": 433, "start_station_id": "220", "start_station_name": "M\u00f8llendalsplass", "start_station_description": "ved KMD Fakultetet", "start_station_latitude": 60.379894791874165, "start_station_longitude": 5.35207758319504, "end_station_id": "808", "end_station_name": "Damsg\u00e5rdsveien 71", "end_station_description": "By walkway to Damsg\u00e5rdsveien 69-71", "end_station_latitude": 60.380262713779956, "end_station_longitude": 5.323223146883635}, {"started_at": "2024-10-01 05:15:36.699000+00:00", "ended_at": "2024-10-01 05:21:57.254000+00:00", "duration": 380, "start_station_id": "368", "start_station_name": "Festplassen", "start_station_description": "Festplassen", "start_station_latitude": 60.391123958982405, "start_station_longitude": 5.325713785893413, "end_station_id": "138", "end_station_name": "C. Sundts gate", "end_station_description": "Ved Nagelg\u00e5rden", "end_station_latitude": 60.39947506336557, "end_station_longitude": 5.308762204430565}, {"started_at": "2024-10-01 05:16:19.397000+00:00", "ended_at": "2024-10-01 05:27:32.076000+00:00", "duration": 672, "start_station_id": "222", "start_station_name": "Sandviken Brygge", "start_station_description": "ved M\u00e5seskj\u00e6ret", "start_station_latitude": 60.41294568274233, "start_station_longitude": 5.320870309021842, "end_station_id": "817", "end_station_name": "Nedre Korskirkeallmenning", "end_station_description": "Nedre Korskirkeallmenning 8", "end_station_latitude": 60.394549852530844, "end_station_longitude": 5.327049981572372}, {"started_at": "2024-10-01 05:16:35.523000+00:00", "ended_at": "2024-10-01 05:21:05.908000+00:00", "duration": 270, "start_station_id": "819", "start_station_name": "Thorm\u00f8hlens gate", "start_station_description": "Lang mur ved Fotballbanen", "start_station_latitude": 60.38316244112318, "start_station_longitude": 5.324053067317891, "end_station_id": "2313", "end_station_name": "Solheimsviken", "end_station_description": "Utenfor Beddingen", "end_station_latitude": 60.37708169275558, "end_station_longitude": 5.335575458852787}, {"started_at": "2024-10-01 05:17:52.315000+00:00", "ended_at": "2024-10-01 05:32:27.826000+00:00", "duration": 875, "start_station_id": "807", "start_station_name": "Dreggsallmenningen Nord", "start_station_description": "Vis a vis Bryggen Museum", "start_station_latitude": 60.398656493732524, "start_station_longitude": 5.3221425864564935, "end_station_id": "646", "end_station_name": "Bj\u00f8rnsonsgate", "end_station_description": "Ved \u00c5rstad VGS", "end_station_latitude": 60.373985939857135, "end_station_longitude": 5.342082137178068}, {"started_at": "2024-10-01 05:18:16.667000+00:00", "ended_at": "2024-10-01 05:26:10.559000+00:00", "duration": 473, "start_station_id": "814", "start_station_name": "Nykirken", "start_station_description": "i Strandgaten", "start_station_latitude": 60.396949224333255, "start_station_longitude": 5.313494727727743, "end_station_id": "791", "end_station_name": "Busstasjonen 4 S\u00f8r", "end_station_description": "Mot ADO", "end_station_latitude": 60.387058789354164, "end_station_longitude": 5.335633911730724}, {"started_at": "2024-10-01 05:18:31.067000+00:00", "ended_at": "2024-10-01 05:23:47.733000+00:00", "duration": 316, "start_station_id": "82", "start_station_name": "Den Nationale Scene", "start_station_description": "ved hovedinngangen", "start_station_latitude": 60.39245536165015, "start_station_longitude": 5.320185176096857, "end_station_id": "1894", "end_station_name": "Kong Oscars gate", "end_station_description": "Ved Kong Oscars gate 36", "end_station_latitude": 60.393323250707, "end_station_longitude": 5.330654155344547}, {"started_at": "2024-10-01 05:19:09.350000+00:00", "ended_at": "2024-10-01 05:25:21.816000+00:00", "duration": 372, "start_station_id": "817", "start_station_name": "Nedre Korskirkeallmenning", "start_station_description": "Nedre Korskirkeallmenning 8", "start_station_latitude": 60.394549852530844, "start_station_longitude": 5.327049981572372, "end_station_id": "794", "end_station_name": "St. Jakobs Plass", "end_station_description": "Langs Folkeuniversitetet", "end_station_latitude": 60.386681495848364, "end_station_longitude": 5.3309780770646}, {"started_at": "2024-10-01 05:19:13.141000+00:00", "ended_at": "2024-10-01 05:22:22.386000+00:00", "duration": 189, "start_station_id": "1892", "start_station_name": "Neumanns gate II", "start_station_description": "N\u00e6r Neumanns gate 25", "start_station_latitude": 60.39097915423838, "start_station_longitude": 5.320656172070585, "end_station_id": "817", "end_station_name": "Nedre Korskirkeallmenning", "end_station_description": "Nedre Korskirkeallmenning 8", "end_station_latitude": 60.394549852530844, "end_station_longitude": 5.327049981572372}, {"started_at": "2024-10-01 05:19:18.991000+00:00", "ended_at": "2024-10-01 05:31:35.199000+00:00", "duration": 736, "start_station_id": "5", "start_station_name": "Moxy Hotellet", "start_station_description": "P\u00e5 s\u00f8rsiden av hotellet ", "start_station_latitude": 60.37878279018753, "start_station_longitude": 5.3333274872102265, "end_station_id": "806", "end_station_name": "Dreggsallmenningen S\u00f8r", "end_station_description": "Radisson Blu Hotel", "end_station_latitude": 60.39770902893835, "end_station_longitude": 5.32200057798218}, {"started_at": "2024-10-01 05:19:50.438000+00:00", "ended_at": "2024-10-01 05:24:17.513000+00:00", "duration": 267, "start_station_id": "368", "start_station_name": "Festplassen", "start_station_description": "Festplassen", "start_station_latitude": 60.391123958982405, "start_station_longitude": 5.325713785893413, "end_station_id": "794", "end_station_name": "St. Jakobs Plass", "end_station_description": "Langs Folkeuniversitetet", "end_station_latitude": 60.386681495848364, "end_station_longitude": 5.3309780770646}, {"started_at": "2024-10-01 05:20:42.749000+00:00", "ended_at": "2024-10-01 05:27:36.323000+00:00", "duration": 413, "start_station_id": "1888", "start_station_name": "Bergen Jernbanestasjon II", "start_station_description": "P\u00e5 venstre side av hovedinngangen til Jernbanestasjonen", "start_station_latitude": 60.39066508674793, "start_station_longitude": 5.333027169585989, "end_station_id": "1043", "end_station_name": "Comfort Hotel Bergen", "end_station_description": "Holbergsallmenningen bussholdeplass", "end_station_latitude": 60.396329429740746, "end_station_longitude": 5.315115500234867}, {"started_at": "2024-10-01 05:20:51.513000+00:00", "ended_at": "2024-10-01 05:29:14.293000+00:00", "duration": 502, "start_station_id": "808", "start_station_name": "Damsg\u00e5rdsveien 71", "start_station_description": "By walkway to Damsg\u00e5rdsveien 69-71", "start_station_latitude": 60.380262713779956, "start_station_longitude": 5.323223146883635, "end_station_id": "788", "end_station_name": "Danmarksplass", "end_station_description": "Ved bybanestopp", "end_station_latitude": 60.376082994809856, "end_station_longitude": 5.339851409058042}, {"started_at": "2024-10-01 05:21:27.441000+00:00", "ended_at": "2024-10-01 05:27:52.638000+00:00", "duration": 385, "start_station_id": "36", "start_station_name": "Torgallmenningen", "start_station_description": "Valkendorfsgaten / Torgallmenningen", "start_station_latitude": 60.39296632614153, "start_station_longitude": 5.323538420433351, "end_station_id": "138", "end_station_name": "C. Sundts gate", "end_station_description": "Ved Nagelg\u00e5rden", "end_station_latitude": 60.39947506336557, "end_station_longitude": 5.308762204430565}, {"started_at": "2024-10-01 05:21:38.243000+00:00", "ended_at": "2024-10-01 05:26:00.214000+00:00", "duration": 261, "start_station_id": "816", "start_station_name": "\u00d8stre Murallmenningen nedre", "start_station_description": "Ved inngang G\u00e5gaten", "start_station_latitude": 60.395143864343254, "start_station_longitude": 5.320002322335455, "end_station_id": "1890", "end_station_name": "Christian Michelsens institutt", "end_station_description": "N\u00e6r Jekteviksbakken 31", "end_station_latitude": 60.38971028611195, "end_station_longitude": 5.314041873201262}, {"started_at": "2024-10-01 05:21:59.837000+00:00", "ended_at": "2024-10-01 05:30:42.616000+00:00", "duration": 522, "start_station_id": "33", "start_station_name": "H\u00f8gskulen p\u00e5 Vestlandet", "start_station_description": "Ved hovedinngang til skolen", "start_station_latitude": 60.369179844976586, "start_station_longitude": 5.349443793165847, "end_station_id": "1816", "end_station_name": "Hansaparken", "end_station_description": "I gangtunell ved butikk", "end_station_latitude": 60.38604412210008, "end_station_longitude": 5.349253890141261}, {"started_at": "2024-10-01 05:22:02.440000+00:00", "ended_at": "2024-10-01 05:33:41.762000+00:00", "duration": 699, "start_station_id": "789", "start_station_name": "Busstasjonen 1 Nord", "start_station_description": "Ved Bergen Busstasjon sin informasjon ", "start_station_latitude": 60.38890977889046, "start_station_longitude": 5.333817119783134, "end_station_id": "5255", "end_station_name": "Tollbodalmenningen", "end_station_description": "Ved siden av lekeplass", "end_station_latitude": 60.39922323697098, "end_station_longitude": 5.3105257209258525}, {"started_at": "2024-10-01 05:23:19.193000+00:00", "ended_at": "2024-10-01 05:27:22.303000+00:00", "duration": 243, "start_station_id": "790", "start_station_name": "Busstasjonen 3  \u00d8st", "start_station_description": "Ved Taxiholdeplass", "start_station_latitude": 60.38785633733042, "start_station_longitude": 5.334459219764085, "end_station_id": "804", "end_station_name": "Stenersen", "end_station_description": "Til h\u00f8yre for inngang", "end_station_latitude": 60.390174061139966, "end_station_longitude": 5.324792207669702}, {"started_at": "2024-10-01 05:23:59.315000+00:00", "ended_at": "2024-10-01 05:28:37.045000+00:00", "duration": 277, "start_station_id": "1892", "start_station_name": "Neumanns gate II", "start_station_description": "N\u00e6r Neumanns gate 25", "start_station_latitude": 60.39097915423838, "start_station_longitude": 5.320656172070585, "end_station_id": "794", "end_station_name": "St. Jakobs Plass", "end_station_description": "Langs Folkeuniversitetet", "end_station_latitude": 60.386681495848364, "end_station_longitude": 5.3309780770646}, {"started_at": "2024-10-01 05:24:07.353000+00:00", "ended_at": "2024-10-01 05:33:17.267000+00:00", "duration": 549, "start_station_id": "817", "start_station_name": "Nedre Korskirkeallmenning", "start_station_description": "Nedre Korskirkeallmenning 8", "start_station_latitude": 60.394549852530844, "start_station_longitude": 5.327049981572372, "end_station_id": "2322", "end_station_name": "H\u00f8yteknologisenteret", "end_station_description": "Utenfor hovedinngang", "end_station_latitude": 60.38174958551062, "end_station_longitude": 5.331698655041777}, {"started_at": "2024-10-01 05:24:31.067000+00:00", "ended_at": "2024-10-01 05:35:37.270000+00:00", "duration": 666, "start_station_id": "3396", "start_station_name": "Kronstad bybanestopp", "start_station_description": "Ved siden av sykkelskur", "start_station_latitude": 60.37178687508714, "start_station_longitude": 5.349552885719248, "end_station_id": "367", "end_station_name": "Haraldsplass", "end_station_description": "Haraldsplass Diakonale Sykehus", "end_station_latitude": 60.37911124360612, "end_station_longitude": 5.361202283994771}, {"started_at": "2024-10-01 05:24:59.844000+00:00", "ended_at": "2024-10-01 05:30:37.486000+00:00", "duration": 337, "start_station_id": "1043", "start_station_name": "Comfort Hotel Bergen", "start_station_description": "Holbergsallmenningen bussholdeplass", "start_station_latitude": 60.396329429740746, "start_station_longitude": 5.315115500234867, "end_station_id": "36", "end_station_name": "Torgallmenningen", "end_station_description": "Valkendorfsgaten / Torgallmenningen", "end_station_latitude": 60.39296632614153, "end_station_longitude": 5.323538420433351}, {"started_at": "2024-10-01 05:25:04.857000+00:00", "ended_at": "2024-10-01 05:44:58.199000+00:00", "duration": 1193, "start_station_id": "117", "start_station_name": "Verftet", "start_station_description": "Ved kaien p\u00e5 ved Georgernes verft", "start_station_latitude": 60.395877002094046, "start_station_longitude": 5.307755827707297, "end_station_id": "641", "end_station_name": "Krohnviken", "end_station_description": "Ved Solheimsviken bob\u00e5thavn", "end_station_latitude": 60.37810721367397, "end_station_longitude": 5.3310207695192275}, {"started_at": "2024-10-01 05:25:37.529000+00:00", "ended_at": "2024-10-01 05:31:02.260000+00:00", "duration": 324, "start_station_id": "815", "start_station_name": "G\u00e5gaten", "start_station_description": "Strandgaten 60", "start_station_latitude": 60.395070112977045, "start_station_longitude": 5.31879835082907, "end_station_id": "75", "end_station_name": "Akvariet", "end_station_description": " Ved Akvariet og Havforskningsinstituttet", "end_station_latitude": 60.39987652272946, "end_station_longitude": 5.304686307890734}, {"started_at": "2024-10-01 05:27:25.240000+00:00", "ended_at": "2024-10-01 05:34:16.370000+00:00", "duration": 411, "start_station_id": "368", "start_station_name": "Festplassen", "start_station_description": "Festplassen", "start_station_latitude": 60.391123958982405, "start_station_longitude": 5.325713785893413, "end_station_id": "217", "end_station_name": "Nykirkekaien", "end_station_description": "Langs C. Sundts gate", "end_station_latitude": 60.39705738914522, "end_station_longitude": 5.314548482139799}, {"started_at": "2024-10-01 05:27:47.213000+00:00", "ended_at": "2024-10-01 05:44:26.047000+00:00", "duration": 998, "start_station_id": "3396", "start_station_name": "Kronstad bybanestopp", "start_station_description": "Ved siden av sykkelskur", "start_station_latitude": 60.37178687508714, "start_station_longitude": 5.349552885719248, "end_station_id": "814", "end_station_name": "Nykirken", "end_station_description": "i Strandgaten", "end_station_latitude": 60.396949224333255, "end_station_longitude": 5.313494727727743}, {"started_at": "2024-10-01 05:28:08.938000+00:00", "ended_at": "2024-10-01 05:34:31.676000+00:00", "duration": 382, "start_station_id": "131", "start_station_name": "Gulating", "start_station_description": "Gulatings plass ved R\u00e5dhuset", "start_station_latitude": 60.391983600413376, "start_station_longitude": 5.32661819461282, "end_station_id": "1043", "end_station_name": "Comfort Hotel Bergen", "end_station_description": "Holbergsallmenningen bussholdeplass", "end_station_latitude": 60.396329429740746, "end_station_longitude": 5.315115500234867}, {"started_at": "2024-10-01 05:28:24.575000+00:00", "ended_at": "2024-10-01 05:40:27.169000+00:00", "duration": 722, "start_station_id": "98", "start_station_name": "Brann Stadion", "start_station_description": "Bak Frydenb\u00f8tribunen", "start_station_latitude": 60.367425453190464, "start_station_longitude": 5.3551910634374735, "end_station_id": "214", "end_station_name": "Nyg\u00e5rdsporten", "end_station_description": "P\u00e5 \u00f8stsiden av Nyg\u00e5rdsgaten", "end_station_latitude": 60.3839343833222, "end_station_longitude": 5.333450454511649}, {"started_at": "2024-10-01 05:28:46.821000+00:00", "ended_at": "2024-10-01 05:31:48.549000+00:00", "duration": 181, "start_station_id": "789", "start_station_name": "Busstasjonen 1 Nord", "start_station_description": "Ved Bergen Busstasjon sin informasjon ", "start_station_latitude": 60.38890977889046, "start_station_longitude": 5.333817119783134, "end_station_id": "368", "end_station_name": "Festplassen", "end_station_description": "Festplassen", "end_station_latitude": 60.391123958982405, "end_station_longitude": 5.325713785893413}, {"started_at": "2024-10-01 05:28:54.348000+00:00", "ended_at": "2024-10-01 05:34:44.266000+00:00", "duration": 349, "start_station_id": "810", "start_station_name": "Amalie Skrams vei S\u00f8r", "start_station_description": "Amalie Skrams vei 1", "start_station_latitude": 60.408096993005785, "start_station_longitude": 5.325510899047174, "end_station_id": "806", "end_station_name": "Dreggsallmenningen S\u00f8r", "end_station_description": "Radisson Blu Hotel", "end_station_latitude": 60.39770902893835, "end_station_longitude": 5.32200057798218}, {"started_at": "2024-10-01 05:28:59.312000+00:00", "ended_at": "2024-10-01 05:45:19.580000+00:00", "duration": 980, "start_station_id": "98", "start_station_name": "Brann Stadion", "start_station_description": "Bak Frydenb\u00f8tribunen", "start_station_latitude": 60.367425453190464, "start_station_longitude": 5.3551910634374735, "end_station_id": "22", "end_station_name": "Skur 11", "end_station_description": "Nord for skur 11", "end_station_latitude": 60.396384231131684, "end_station_longitude": 5.324169337618514}, {"started_at": "2024-10-01 05:29:51.853000+00:00", "ended_at": "2024-10-01 05:39:56.897000+00:00", "duration": 605, "start_station_id": "803", "start_station_name": "Permanenten", "start_station_description": "Ved Inngang", "start_station_latitude": 60.3906427466302, "start_station_longitude": 5.324397430398562, "end_station_id": "138", "end_station_name": "C. Sundts gate", "end_station_description": "Ved Nagelg\u00e5rden", "end_station_latitude": 60.39947506336557, "end_station_longitude": 5.308762204430565}, {"started_at": "2024-10-01 05:29:53.549000+00:00", "ended_at": "2024-10-01 05:53:04.934000+00:00", "duration": 1391, "start_station_id": "814", "start_station_name": "Nykirken", "start_station_description": "i Strandgaten", "start_station_latitude": 60.396949224333255, "start_station_longitude": 5.313494727727743, "end_station_id": "808", "end_station_name": "Damsg\u00e5rdsveien 71", "end_station_description": "By walkway to Damsg\u00e5rdsveien 69-71", "end_station_latitude": 60.380262713779956, "end_station_longitude": 5.323223146883635}, {"started_at": "2024-10-01 05:30:48.804000+00:00", "ended_at": "2024-10-01 05:40:28.713000+00:00", "duration": 579, "start_station_id": "810", "start_station_name": "Amalie Skrams vei S\u00f8r", "start_station_description": "Amalie Skrams vei 1", "start_station_latitude": 60.408096993005785, "start_station_longitude": 5.325510899047174, "end_station_id": "36", "end_station_name": "Torgallmenningen", "end_station_description": "Valkendorfsgaten / Torgallmenningen", "end_station_latitude": 60.39296632614153, "end_station_longitude": 5.323538420433351}, {"started_at": "2024-10-01 05:30:54.727000+00:00", "ended_at": "2024-10-01 05:42:15.571000+00:00", "duration": 680, "start_station_id": "1894", "start_station_name": "Kong Oscars gate", "start_station_description": "Ved Kong Oscars gate 36", "start_station_latitude": 60.393323250707, "start_station_longitude": 5.330654155344547, "end_station_id": "220", "end_station_name": "M\u00f8llendalsplass", "end_station_description": "ved KMD Fakultetet", "end_station_latitude": 60.379894791874165, "end_station_longitude": 5.35207758319504}, {"started_at": "2024-10-01 05:31:08.767000+00:00", "ended_at": "2024-10-01 05:43:49.724000+00:00", "duration": 760, "start_station_id": "794", "start_station_name": "St. Jakobs Plass", "start_station_description": "Langs Folkeuniversitetet", "start_station_latitude": 60.386681495848364, "start_station_longitude": 5.3309780770646, "end_station_id": "638", "end_station_name": "Damsg\u00e5rdsallmenningen", "end_station_description": "Nede ved kai", "end_station_latitude": 60.386709149786796, "end_station_longitude": 5.299130112557805}, {"started_at": "2024-10-01 05:31:19.141000+00:00", "ended_at": "2024-10-01 05:43:55.447000+00:00", "duration": 756, "start_station_id": "794", "start_station_name": "St. Jakobs Plass", "start_station_description": "Langs Folkeuniversitetet", "start_station_latitude": 60.386681495848364, "start_station_longitude": 5.3309780770646, "end_station_id": "638", "end_station_name": "Damsg\u00e5rdsallmenningen", "end_station_description": "Nede ved kai", "end_station_latitude": 60.386709149786796, "end_station_longitude": 5.299130112557805}, {"started_at": "2024-10-01 05:32:10.038000+00:00", "ended_at": "2024-10-01 05:35:59.006000+00:00", "duration": 228, "start_station_id": "788", "start_station_name": "Danmarksplass", "start_station_description": "Ved bybanestopp", "start_station_latitude": 60.376082994809856, "start_station_longitude": 5.339851409058042, "end_station_id": "214", "end_station_name": "Nyg\u00e5rdsporten", "end_station_description": "P\u00e5 \u00f8stsiden av Nyg\u00e5rdsgaten", "end_station_latitude": 60.3839343833222, "end_station_longitude": 5.333450454511649}, {"started_at": "2024-10-01 05:33:23.527000+00:00", "ended_at": "2024-10-01 05:45:46.371000+00:00", "duration": 742, "start_station_id": "794", "start_station_name": "St. Jakobs Plass", "start_station_description": "Langs Folkeuniversitetet", "start_station_latitude": 60.386681495848364, "start_station_longitude": 5.3309780770646, "end_station_id": "140", "end_station_name": "Sandviksbodene", "end_station_description": "Sj\u00f8gaten 2A", "end_station_latitude": 60.40569501689435, "end_station_longitude": 5.323373526334763}, {"started_at": "2024-10-01 05:33:33.546000+00:00", "ended_at": "2024-10-01 05:37:14.047000+00:00", "duration": 220, "start_station_id": "7", "start_station_name": "Neumanns gate", "start_station_description": "Ved Konsertpaleet", "start_station_latitude": 60.39138580667719, "start_station_longitude": 5.319194867192266, "end_station_id": "794", "end_station_name": "St. Jakobs Plass", "end_station_description": "Langs Folkeuniversitetet", "end_station_latitude": 60.386681495848364, "end_station_longitude": 5.3309780770646}, {"started_at": "2024-10-01 05:33:37.970000+00:00", "ended_at": "2024-10-01 05:37:35.827000+00:00", "duration": 237, "start_station_id": "138", "start_station_name": "C. Sundts gate", "start_station_description": "Ved Nagelg\u00e5rden", "start_station_latitude": 60.39947506336557, "start_station_longitude": 5.308762204430565, "end_station_id": "816", "end_station_name": "\u00d8stre Murallmenningen nedre", "end_station_description": "Ved inngang G\u00e5gaten", "end_station_latitude": 60.395143864343254, "end_station_longitude": 5.320002322335455}, {"started_at": "2024-10-01 05:33:38.484000+00:00", "ended_at": "2024-10-01 05:48:00.283000+00:00", "duration": 861, "start_station_id": "98", "start_station_name": "Brann Stadion", "start_station_description": "Bak Frydenb\u00f8tribunen", "start_station_latitude": 60.367425453190464, "start_station_longitude": 5.3551910634374735, "end_station_id": "1047", "end_station_name": "Welhavens gate 64", "end_station_description": "Langs gatetun", "end_station_latitude": 60.38445114789948, "end_station_longitude": 5.324440726278226}, {"started_at": "2024-10-01 05:33:53.666000+00:00", "ended_at": "2024-10-01 05:46:54.289000+00:00", "duration": 780, "start_station_id": "219", "start_station_name": "Jonsvollkvartalet", "start_station_description": "Jonsvollsgaten", "start_station_latitude": 60.39267683527631, "start_station_longitude": 5.317308285189142, "end_station_id": "220", "end_station_name": "M\u00f8llendalsplass", "end_station_description": "ved KMD Fakultetet", "end_station_latitude": 60.379894791874165, "end_station_longitude": 5.35207758319504}, {"started_at": "2024-10-01 05:34:31.086000+00:00", "ended_at": "2024-10-01 05:49:29.742000+00:00", "duration": 898, "start_station_id": "221", "start_station_name": "Sandvikstorget", "start_station_description": "ved Norges Fiskerimuseum", "start_station_latitude": 60.408582102784685, "start_station_longitude": 5.322648583141813, "end_station_id": "2346", "end_station_name": "Gamle Bergen", "end_station_description": "Utenfor nordre inngang til museet", "end_station_latitude": 60.41830821831951, "end_station_longitude": 5.309946203281243}, {"started_at": "2024-10-01 05:34:37.124000+00:00", "ended_at": "2024-10-01 05:38:50.541000+00:00", "duration": 253, "start_station_id": "814", "start_station_name": "Nykirken", "start_station_description": "i Strandgaten", "start_station_latitude": 60.396949224333255, "start_station_longitude": 5.313494727727743, "end_station_id": "36", "end_station_name": "Torgallmenningen", "end_station_description": "Valkendorfsgaten / Torgallmenningen", "end_station_latitude": 60.39296632614153, "end_station_longitude": 5.323538420433351}, {"started_at": "2024-10-01 05:34:53.326000+00:00", "ended_at": "2024-10-01 05:48:39.365000+00:00", "duration": 826, "start_station_id": "807", "start_station_name": "Dreggsallmenningen Nord", "start_station_description": "Vis a vis Bryggen Museum", "start_station_latitude": 60.398656493732524, "start_station_longitude": 5.3221425864564935, "end_station_id": "641", "end_station_name": "Krohnviken", "end_station_description": "Ved Solheimsviken bob\u00e5thavn", "end_station_latitude": 60.37810721367397, "end_station_longitude": 5.3310207695192275}, {"started_at": "2024-10-01 05:35:29.545000+00:00", "ended_at": "2024-10-01 05:45:13.265000+00:00", "duration": 583, "start_station_id": "3396", "start_station_name": "Kronstad bybanestopp", "start_station_description": "Ved siden av sykkelskur", "start_station_latitude": 60.37178687508714, "start_station_longitude": 5.349552885719248, "end_station_id": "791", "end_station_name": "Busstasjonen 4 S\u00f8r", "end_station_description": "Mot ADO", "end_station_latitude": 60.387058789354164, "end_station_longitude": 5.335633911730724}, {"started_at": "2024-10-01 05:36:02.936000+00:00", "ended_at": "2024-10-01 05:44:45.129000+00:00", "duration": 522, "start_station_id": "368", "start_station_name": "Festplassen", "start_station_description": "Festplassen", "start_station_latitude": 60.391123958982405, "start_station_longitude": 5.325713785893413, "end_station_id": "138", "end_station_name": "C. Sundts gate", "end_station_description": "Ved Nagelg\u00e5rden", "end_station_latitude": 60.39947506336557, "end_station_longitude": 5.308762204430565}, {"started_at": "2024-10-01 05:36:06.540000+00:00", "ended_at": "2024-10-01 05:41:38.233000+00:00", "duration": 331, "start_station_id": "83", "start_station_name": "Bergen jernbanestasjon", "start_station_description": "P\u00e5 h\u00f8yre side av hovedinngangen til Jernbanestasjonen", "start_station_latitude": 60.390414110522414, "start_station_longitude": 5.3326504538233905, "end_station_id": "816", "end_station_name": "\u00d8stre Murallmenningen nedre", "end_station_description": "Ved inngang G\u00e5gaten", "end_station_latitude": 60.395143864343254, "end_station_longitude": 5.320002322335455}, {"started_at": "2024-10-01 05:36:28.009000+00:00", "ended_at": "2024-10-01 05:50:34.532000+00:00", "duration": 846, "start_station_id": "814", "start_station_name": "Nykirken", "start_station_description": "i Strandgaten", "start_station_latitude": 60.396949224333255, "start_station_longitude": 5.313494727727743, "end_station_id": "222", "end_station_name": "Sandviken Brygge", "end_station_description": "ved M\u00e5seskj\u00e6ret", "end_station_latitude": 60.41294568274233, "end_station_longitude": 5.320870309021842}, {"started_at": "2024-10-01 05:36:39.071000+00:00", "ended_at": "2024-10-01 05:51:17.897000+00:00", "duration": 878, "start_station_id": "1894", "start_station_name": "Kong Oscars gate", "start_station_description": "Ved Kong Oscars gate 36", "start_station_latitude": 60.393323250707, "start_station_longitude": 5.330654155344547, "end_station_id": "3396", "end_station_name": "Kronstad bybanestopp", "end_station_description": "Ved siden av sykkelskur", "end_station_latitude": 60.37178687508714, "end_station_longitude": 5.349552885719248}, {"started_at": "2024-10-01 05:36:59.843000+00:00", "ended_at": "2024-10-01 05:46:41.758000+00:00", "duration": 581, "start_station_id": "220", "start_station_name": "M\u00f8llendalsplass", "start_station_description": "ved KMD Fakultetet", "start_station_latitude": 60.379894791874165, "start_station_longitude": 5.35207758319504, "end_station_id": "808", "end_station_name": "Damsg\u00e5rdsveien 71", "end_station_description": "By walkway to Damsg\u00e5rdsveien 69-71", "end_station_latitude": 60.380262713779956, "end_station_longitude": 5.323223146883635}, {"started_at": "2024-10-01 05:37:48.218000+00:00", "ended_at": "2024-10-01 05:41:27.551000+00:00", "duration": 219, "start_station_id": "814", "start_station_name": "Nykirken", "start_station_description": "i Strandgaten", "start_station_latitude": 60.396949224333255, "start_station_longitude": 5.313494727727743, "end_station_id": "82", "end_station_name": "Den Nationale Scene", "end_station_description": "ved hovedinngangen", "end_station_latitude": 60.39245536165015, "end_station_longitude": 5.320185176096857}, {"started_at": "2024-10-01 05:38:26.780000+00:00", "ended_at": "2024-10-01 05:46:16.484000+00:00", "duration": 469, "start_station_id": "1888", "start_station_name": "Bergen Jernbanestasjon II", "start_station_description": "P\u00e5 venstre side av hovedinngangen til Jernbanestasjonen", "start_station_latitude": 60.39066508674793, "start_station_longitude": 5.333027169585989, "end_station_id": "75", "end_station_name": "Akvariet", "end_station_description": " Ved Akvariet og Havforskningsinstituttet", "end_station_latitude": 60.39987652272946, "end_station_longitude": 5.304686307890734}, {"started_at": "2024-10-01 05:38:44.137000+00:00", "ended_at": "2024-10-01 05:45:55.304000+00:00", "duration": 431, "start_station_id": "1045", "start_station_name": "Damsg\u00e5rdsveien 2", "start_station_description": "Ved Damsg\u00e5rdsveien 34", "start_station_latitude": 60.37802198798124, "start_station_longitude": 5.329383048102329, "end_station_id": "24", "end_station_name": "Studentboligene", "end_station_description": "ved Gr\u00f8nneviken og KMD fakultetet", "end_station_latitude": 60.37831673774707, "end_station_longitude": 5.350897458652753}, {"started_at": "2024-10-01 05:38:48.255000+00:00", "ended_at": "2024-10-01 05:46:47.505000+00:00", "duration": 479, "start_station_id": "131", "start_station_name": "Gulating", "start_station_description": "Gulatings plass ved R\u00e5dhuset", "start_station_latitude": 60.391983600413376, "start_station_longitude": 5.32661819461282, "end_station_id": "138", "end_station_name": "C. Sundts gate", "end_station_description": "Ved Nagelg\u00e5rden", "end_station_latitude": 60.39947506336557, "end_station_longitude": 5.308762204430565}, {"started_at": "2024-10-01 05:39:16.492000+00:00", "ended_at": "2024-10-01 05:43:14.233000+00:00", "duration": 237, "start_station_id": "22", "start_station_name": "Skur 11", "start_station_description": "Nord for skur 11", "start_station_latitude": 60.396384231131684, "start_station_longitude": 5.324169337618514, "end_station_id": "816", "end_station_name": "\u00d8stre Murallmenningen nedre", "end_station_description": "Ved inngang G\u00e5gaten", "end_station_latitude": 60.395143864343254, "end_station_longitude": 5.320002322335455}, {"started_at": "2024-10-01 05:40:04.408000+00:00", "ended_at": "2024-10-01 05:44:15.627000+00:00", "duration": 251, "start_station_id": "794", "start_station_name": "St. Jakobs Plass", "start_station_description": "Langs Folkeuniversitetet", "start_station_latitude": 60.386681495848364, "start_station_longitude": 5.3309780770646, "end_station_id": "368", "end_station_name": "Festplassen", "end_station_description": "Festplassen", "end_station_latitude": 60.391123958982405, "end_station_longitude": 5.325713785893413}, {"started_at": "2024-10-01 05:41:06.616000+00:00", "ended_at": "2024-10-01 05:55:26.366000+00:00", "duration": 859, "start_station_id": "1893", "start_station_name": "Haukelandshallen", "start_station_description": "Nord for inngang til hall", "start_station_latitude": 60.370493777025985, "start_station_longitude": 5.353846489647282, "end_station_id": "639", "end_station_name": "Frydenb\u00f8 Marina", "end_station_description": "Under overbygg v/nr. 135", "end_station_latitude": 60.384467341026586, "end_station_longitude": 5.310007717995973}, {"started_at": "2024-10-01 05:41:40.783000+00:00", "ended_at": "2024-10-01 05:57:17.746000+00:00", "duration": 936, "start_station_id": "1898", "start_station_name": "Kronstad", "start_station_description": "Ved Bergen frikirke", "start_station_latitude": 60.3720506380196, "start_station_longitude": 5.352659970408496, "end_station_id": "817", "end_station_name": "Nedre Korskirkeallmenning", "end_station_description": "Nedre Korskirkeallmenning 8", "end_station_latitude": 60.394549852530844, "end_station_longitude": 5.327049981572372}, {"started_at": "2024-10-01 05:42:19.684000+00:00", "ended_at": "2024-10-01 05:52:46.513000+00:00", "duration": 626, "start_station_id": "1816", "start_station_name": "Hansaparken", "start_station_description": "I gangtunell ved butikk", "start_station_latitude": 60.38604412210008, "start_station_longitude": 5.349253890141261, "end_station_id": "5", "end_station_name": "Moxy Hotellet", "end_station_description": "P\u00e5 s\u00f8rsiden av hotellet ", "end_station_latitude": 60.37878279018753, "end_station_longitude": 5.3333274872102265}, {"started_at": "2024-10-01 05:42:22.910000+00:00", "ended_at": "2024-10-01 05:45:53.175000+00:00", "duration": 210, "start_station_id": "814", "start_station_name": "Nykirken", "start_station_description": "i Strandgaten", "start_station_latitude": 60.396949224333255, "start_station_longitude": 5.313494727727743, "end_station_id": "36", "end_station_name": "Torgallmenningen", "end_station_description": "Valkendorfsgaten / Torgallmenningen", "end_station_latitude": 60.39296632614153, "end_station_longitude": 5.323538420433351}, {"started_at": "2024-10-01 05:42:32.140000+00:00", "ended_at": "2024-10-01 05:52:52.626000+00:00", "duration": 620, "start_station_id": "1045", "start_station_name": "Damsg\u00e5rdsveien 2", "start_station_description": "Ved Damsg\u00e5rdsveien 34", "start_station_latitude": 60.37802198798124, "start_station_longitude": 5.329383048102329, "end_station_id": "1816", "end_station_name": "Hansaparken", "end_station_description": "I gangtunell ved butikk", "end_station_latitude": 60.38604412210008, "end_station_longitude": 5.349253890141261}, {"started_at": "2024-10-01 05:43:32.558000+00:00", "ended_at": "2024-10-01 05:59:44.125000+00:00", "duration": 971, "start_station_id": "222", "start_station_name": "Sandviken Brygge", "start_station_description": "ved M\u00e5seskj\u00e6ret", "start_station_latitude": 60.41294568274233, "start_station_longitude": 5.320870309021842, "end_station_id": "1046", "end_station_name": "Ole Vigs gate", "end_station_description": "Ole Vigs Gate 4", "end_station_latitude": 60.385922875207626, "end_station_longitude": 5.321431717819451}, {"started_at": "2024-10-01 05:43:41.143000+00:00", "ended_at": "2024-10-01 05:49:35.896000+00:00", "duration": 354, "start_station_id": "1043", "start_station_name": "Comfort Hotel Bergen", "start_station_description": "Holbergsallmenningen bussholdeplass", "start_station_latitude": 60.396329429740746, "start_station_longitude": 5.315115500234867, "end_station_id": "156", "end_station_name": "Allehelgens plass", "end_station_description": "ved Politihuset", "end_station_latitude": 60.39265146337743, "end_station_longitude": 5.328976911981613}, {"started_at": "2024-10-01 05:43:47.559000+00:00", "ended_at": "2024-10-01 05:55:46.143000+00:00", "duration": 718, "start_station_id": "638", "start_station_name": "Damsg\u00e5rdsallmenningen", "start_station_description": "Nede ved kai", "start_station_latitude": 60.386709149786796, "start_station_longitude": 5.299130112557805, "end_station_id": "794", "end_station_name": "St. Jakobs Plass", "end_station_description": "Langs Folkeuniversitetet", "end_station_latitude": 60.386681495848364, "end_station_longitude": 5.3309780770646}, {"started_at": "2024-10-01 05:43:52.086000+00:00", "ended_at": "2024-10-01 06:01:09.891000+00:00", "duration": 1037, "start_station_id": "644", "start_station_name": "Solheimsgaten (ved Extra)", "start_station_description": "Utenfor COOP Extra", "start_station_latitude": 60.37514055132067, "start_station_longitude": 5.338517421420761, "end_station_id": "138", "end_station_name": "C. Sundts gate", "end_station_description": "Ved Nagelg\u00e5rden", "end_station_latitude": 60.39947506336557, "end_station_longitude": 5.308762204430565}, {"started_at": "2024-10-01 05:44:07.666000+00:00", "ended_at": "2024-10-01 05:50:39.617000+00:00", "duration": 391, "start_station_id": "368", "start_station_name": "Festplassen", "start_station_description": "Festplassen", "start_station_latitude": 60.391123958982405, "start_station_longitude": 5.325713785893413, "end_station_id": "138", "end_station_name": "C. Sundts gate", "end_station_description": "Ved Nagelg\u00e5rden", "end_station_latitude": 60.39947506336557, "end_station_longitude": 5.308762204430565}, {"started_at": "2024-10-01 05:44:34.983000+00:00", "ended_at": "2024-10-01 05:49:45.910000+00:00", "duration": 310, "start_station_id": "219", "start_station_name": "Jonsvollkvartalet", "start_station_description": "Jonsvollsgaten", "start_station_latitude": 60.39267683527631, "start_station_longitude": 5.317308285189142, "end_station_id": "301", "end_station_name": "Lars Hilles", "end_station_description": "Lars Hilles gate 18", "end_station_latitude": 60.388117889090395, "end_station_longitude": 5.331487235597251}, {"started_at": "2024-10-01 05:44:35.845000+00:00", "ended_at": "2024-10-01 05:52:34.417000+00:00", "duration": 478, "start_station_id": "1045", "start_station_name": "Damsg\u00e5rdsveien 2", "start_station_description": "Ved Damsg\u00e5rdsveien 34", "start_station_latitude": 60.37802198798124, "start_station_longitude": 5.329383048102329, "end_station_id": "24", "end_station_name": "Studentboligene", "end_station_description": "ved Gr\u00f8nneviken og KMD fakultetet", "end_station_latitude": 60.37831673774707, "end_station_longitude": 5.350897458652753}, {"started_at": "2024-10-01 05:44:39.762000+00:00", "ended_at": "2024-10-01 05:49:19.114000+00:00", "duration": 279, "start_station_id": "1043", "start_station_name": "Comfort Hotel Bergen", "start_station_description": "Holbergsallmenningen bussholdeplass", "start_station_latitude": 60.396329429740746, "start_station_longitude": 5.315115500234867, "end_station_id": "22", "end_station_name": "Skur 11", "end_station_description": "Nord for skur 11", "end_station_latitude": 60.396384231131684, "end_station_longitude": 5.324169337618514}, {"started_at": "2024-10-01 05:45:02.916000+00:00", "ended_at": "2024-10-01 05:59:09.558000+00:00", "duration": 846, "start_station_id": "69", "start_station_name": "Laksev\u00e5g v/Kirkebukten", "start_station_description": "Parkeringsplass ved Coop Extra", "start_station_latitude": 60.386068777690944, "start_station_longitude": 5.3001083072740585, "end_station_id": "220", "end_station_name": "M\u00f8llendalsplass", "end_station_description": "ved KMD Fakultetet", "end_station_latitude": 60.379894791874165, "end_station_longitude": 5.35207758319504}, {"started_at": "2024-10-01 05:45:39.463000+00:00", "ended_at": "2024-10-01 05:49:18.254000+00:00", "duration": 218, "start_station_id": "794", "start_station_name": "St. Jakobs Plass", "start_station_description": "Langs Folkeuniversitetet", "start_station_latitude": 60.386681495848364, "start_station_longitude": 5.3309780770646, "end_station_id": "368", "end_station_name": "Festplassen", "end_station_description": "Festplassen", "end_station_latitude": 60.391123958982405, "end_station_longitude": 5.325713785893413}, {"started_at": "2024-10-01 05:46:02.601000+00:00", "ended_at": "2024-10-01 05:49:20.242000+00:00", "duration": 197, "start_station_id": "1043", "start_station_name": "Comfort Hotel Bergen", "start_station_description": "Holbergsallmenningen bussholdeplass", "start_station_latitude": 60.396329429740746, "start_station_longitude": 5.315115500234867, "end_station_id": "36", "end_station_name": "Torgallmenningen", "end_station_description": "Valkendorfsgaten / Torgallmenningen", "end_station_latitude": 60.39296632614153, "end_station_longitude": 5.323538420433351}, {"started_at": "2024-10-01 05:46:26.595000+00:00", "ended_at": "2024-10-01 05:50:25.738000+00:00", "duration": 239, "start_station_id": "819", "start_station_name": "Thorm\u00f8hlens gate", "start_station_description": "Lang mur ved Fotballbanen", "start_station_latitude": 60.38316244112318, "start_station_longitude": 5.324053067317891, "end_station_id": "5", "end_station_name": "Moxy Hotellet", "end_station_description": "P\u00e5 s\u00f8rsiden av hotellet ", "end_station_latitude": 60.37878279018753, "end_station_longitude": 5.3333274872102265}, {"started_at": "2024-10-01 05:46:33.126000+00:00", "ended_at": "2024-10-01 05:51:11.278000+00:00", "duration": 278, "start_station_id": "5", "start_station_name": "Moxy Hotellet", "start_station_description": "P\u00e5 s\u00f8rsiden av hotellet ", "start_station_latitude": 60.37878279018753, "start_station_longitude": 5.3333274872102265, "end_station_id": "87", "end_station_name": "AdO arena", "end_station_description": "Ved Amalie Skram vgs og Store Lungeg\u00e5rdsvann", "end_station_latitude": 60.38543124330305, "end_station_longitude": 5.337431780062616}, {"started_at": "2024-10-01 05:46:39.162000+00:00", "ended_at": "2024-10-01 05:53:29.283000+00:00", "duration": 410, "start_station_id": "1887", "start_station_name": "Puddefjordsbroen", "start_station_description": "ved Bredalsmarken 15", "start_station_latitude": 60.38591618700343, "start_station_longitude": 5.319206933440256, "end_station_id": "2313", "end_station_name": "Solheimsviken", "end_station_description": "Utenfor Beddingen", "end_station_latitude": 60.37708169275558, "end_station_longitude": 5.335575458852787}, {"started_at": "2024-10-01 05:47:06.616000+00:00", "ended_at": "2024-10-01 05:54:32.689000+00:00", "duration": 446, "start_station_id": "815", "start_station_name": "G\u00e5gaten", "start_station_description": "Strandgaten 60", "start_station_latitude": 60.395070112977045, "start_station_longitude": 5.31879835082907, "end_station_id": "794", "end_station_name": "St. Jakobs Plass", "end_station_description": "Langs Folkeuniversitetet", "end_station_latitude": 60.386681495848364, "end_station_longitude": 5.3309780770646}, {"started_at": "2024-10-01 05:47:32.822000+00:00", "ended_at": "2024-10-01 05:51:32.955000+00:00", "duration": 240, "start_station_id": "223", "start_station_name": "R\u00e5dhuset", "start_station_description": "P\u00e5 lekeplass ved R\u00e5dhuset ", "start_station_latitude": 60.39148438859138, "start_station_longitude": 5.328519197920741, "end_station_id": "219", "end_station_name": "Jonsvollkvartalet", "end_station_description": "Jonsvollsgaten", "end_station_latitude": 60.39267683527631, "end_station_longitude": 5.317308285189142}, {"started_at": "2024-10-01 05:47:43.129000+00:00", "ended_at": "2024-10-01 06:08:28.208000+00:00", "duration": 1245, "start_station_id": "638", "start_station_name": "Damsg\u00e5rdsallmenningen", "start_station_description": "Nede ved kai", "start_station_latitude": 60.386709149786796, "start_station_longitude": 5.299130112557805, "end_station_id": "368", "end_station_name": "Festplassen", "end_station_description": "Festplassen", "end_station_latitude": 60.391123958982405, "end_station_longitude": 5.325713785893413}, {"started_at": "2024-10-01 05:48:02.252000+00:00", "ended_at": "2024-10-01 06:01:33.656000+00:00", "duration": 811, "start_station_id": "641", "start_station_name": "Krohnviken", "start_station_description": "Ved Solheimsviken bob\u00e5thavn", "start_station_latitude": 60.37810721367397, "start_station_longitude": 5.3310207695192275, "end_station_id": "138", "end_station_name": "C. Sundts gate", "end_station_description": "Ved Nagelg\u00e5rden", "end_station_latitude": 60.39947506336557, "end_station_longitude": 5.308762204430565}, {"started_at": "2024-10-01 05:48:10.698000+00:00", "ended_at": "2024-10-01 05:54:17.364000+00:00", "duration": 366, "start_station_id": "22", "start_station_name": "Skur 11", "start_station_description": "Nord for skur 11", "start_station_latitude": 60.396384231131684, "start_station_longitude": 5.324169337618514, "end_station_id": "138", "end_station_name": "C. Sundts gate", "end_station_description": "Ved Nagelg\u00e5rden", "end_station_latitude": 60.39947506336557, "end_station_longitude": 5.308762204430565}, {"started_at": "2024-10-01 05:48:53.999000+00:00", "ended_at": "2024-10-01 05:58:04.546000+00:00", "duration": 550, "start_station_id": "1896", "start_station_name": "Takhagen p\u00e5 Nordnes", "start_station_description": "P\u00e5 taket av Nordneshallen ", "start_station_latitude": 60.39886453454994, "start_station_longitude": 5.306410871328268, "end_station_id": "131", "end_station_name": "Gulating", "end_station_description": "Gulatings plass ved R\u00e5dhuset", "end_station_latitude": 60.391983600413376, "end_station_longitude": 5.32661819461282}, {"started_at": "2024-10-01 05:49:12.799000+00:00", "ended_at": "2024-10-01 05:54:26.394000+00:00", "duration": 313, "start_station_id": "814", "start_station_name": "Nykirken", "start_station_description": "i Strandgaten", "start_station_latitude": 60.396949224333255, "start_station_longitude": 5.313494727727743, "end_station_id": "131", "end_station_name": "Gulating", "end_station_description": "Gulatings plass ved R\u00e5dhuset", "end_station_latitude": 60.391983600413376, "end_station_longitude": 5.32661819461282}, {"started_at": "2024-10-01 05:49:16.259000+00:00", "ended_at": "2024-10-01 06:01:53.391000+00:00", "duration": 757, "start_station_id": "220", "start_station_name": "M\u00f8llendalsplass", "start_station_description": "ved KMD Fakultetet", "start_station_latitude": 60.379894791874165, "start_station_longitude": 5.35207758319504, "end_station_id": "806", "end_station_name": "Dreggsallmenningen S\u00f8r", "end_station_description": "Radisson Blu Hotel", "end_station_latitude": 60.39770902893835, "end_station_longitude": 5.32200057798218}, {"started_at": "2024-10-01 05:49:36.907000+00:00", "ended_at": "2024-10-01 05:50:46.615000+00:00", "duration": 69, "start_station_id": "808", "start_station_name": "Damsg\u00e5rdsveien 71", "start_station_description": "By walkway to Damsg\u00e5rdsveien 69-71", "start_station_latitude": 60.380262713779956, "start_station_longitude": 5.323223146883635, "end_station_id": "214", "end_station_name": "Nyg\u00e5rdsporten", "end_station_description": "P\u00e5 \u00f8stsiden av Nyg\u00e5rdsgaten", "end_station_latitude": 60.3839343833222, "end_station_longitude": 5.333450454511649}, {"started_at": "2024-10-01 05:49:52.031000+00:00", "ended_at": "2024-10-01 05:53:46.861000+00:00", "duration": 234, "start_station_id": "644", "start_station_name": "Solheimsgaten (ved Extra)", "start_station_description": "Utenfor COOP Extra", "start_station_latitude": 60.37514055132067, "start_station_longitude": 5.338517421420761, "end_station_id": "5", "end_station_name": "Moxy Hotellet", "end_station_description": "P\u00e5 s\u00f8rsiden av hotellet ", "end_station_latitude": 60.37878279018753, "end_station_longitude": 5.3333274872102265}, {"started_at": "2024-10-01 05:50:07.421000+00:00", "ended_at": "2024-10-01 05:53:37.443000+00:00", "duration": 210, "start_station_id": "794", "start_station_name": "St. Jakobs Plass", "start_station_description": "Langs Folkeuniversitetet", "start_station_latitude": 60.386681495848364, "start_station_longitude": 5.3309780770646, "end_station_id": "368", "end_station_name": "Festplassen", "end_station_description": "Festplassen", "end_station_latitude": 60.391123958982405, "end_station_longitude": 5.325713785893413}, {"started_at": "2024-10-01 05:50:07.426000+00:00", "ended_at": "2024-10-01 05:59:37.229000+00:00", "duration": 569, "start_station_id": "24", "start_station_name": "Studentboligene", "start_station_description": "ved Gr\u00f8nneviken og KMD fakultetet", "start_station_latitude": 60.37831673774707, "start_station_longitude": 5.350897458652753, "end_station_id": "49", "end_station_name": "Studentsenteret UiB", "end_station_description": "ved Parkveien / Olaf Ryes vei", "end_station_latitude": 60.38719801795013, "end_station_longitude": 5.322980046239536}, {"started_at": "2024-10-01 05:50:09.834000+00:00", "ended_at": "2024-10-01 05:55:42.721000+00:00", "duration": 332, "start_station_id": "368", "start_station_name": "Festplassen", "start_station_description": "Festplassen", "start_station_latitude": 60.391123958982405, "start_station_longitude": 5.325713785893413, "end_station_id": "814", "end_station_name": "Nykirken", "end_station_description": "i Strandgaten", "end_station_latitude": 60.396949224333255, "end_station_longitude": 5.313494727727743}, {"started_at": "2024-10-01 05:50:13.320000+00:00", "ended_at": "2024-10-01 06:01:43.978000+00:00", "duration": 690, "start_station_id": "810", "start_station_name": "Amalie Skrams vei S\u00f8r", "start_station_description": "Amalie Skrams vei 1", "start_station_latitude": 60.408096993005785, "start_station_longitude": 5.325510899047174, "end_station_id": "5255", "end_station_name": "Tollbodalmenningen", "end_station_description": "Ved siden av lekeplass", "end_station_latitude": 60.39922323697098, "end_station_longitude": 5.3105257209258525}, {"started_at": "2024-10-01 05:50:13.980000+00:00", "ended_at": "2024-10-01 06:05:46.785000+00:00", "duration": 932, "start_station_id": "221", "start_station_name": "Sandvikstorget", "start_station_description": "ved Norges Fiskerimuseum", "start_station_latitude": 60.408582102784685, "start_station_longitude": 5.322648583141813, "end_station_id": "49", "end_station_name": "Studentsenteret UiB", "end_station_description": "ved Parkveien / Olaf Ryes vei", "end_station_latitude": 60.38719801795013, "end_station_longitude": 5.322980046239536}, {"started_at": "2024-10-01 05:50:23.357000+00:00", "ended_at": "2024-10-01 05:57:57.663000+00:00", "duration": 454, "start_station_id": "790", "start_station_name": "Busstasjonen 3  \u00d8st", "start_station_description": "Ved Taxiholdeplass", "start_station_latitude": 60.38785633733042, "start_station_longitude": 5.334459219764085, "end_station_id": "814", "end_station_name": "Nykirken", "end_station_description": "i Strandgaten", "end_station_latitude": 60.396949224333255, "end_station_longitude": 5.313494727727743}, {"started_at": "2024-10-01 05:50:31.579000+00:00", "ended_at": "2024-10-01 06:01:32.221000+00:00", "duration": 660, "start_station_id": "5", "start_station_name": "Moxy Hotellet", "start_station_description": "P\u00e5 s\u00f8rsiden av hotellet ", "start_station_latitude": 60.37878279018753, "start_station_longitude": 5.3333274872102265, "end_station_id": "217", "end_station_name": "Nykirkekaien", "end_station_description": "Langs C. Sundts gate", "end_station_latitude": 60.39705738914522, "end_station_longitude": 5.314548482139799}, {"started_at": "2024-10-01 05:50:34.325000+00:00", "ended_at": "2024-10-01 05:57:14.926000+00:00", "duration": 400, "start_station_id": "150", "start_station_name": "Torget", "start_station_description": "Ved busstopp", "start_station_latitude": 60.39587808663882, "start_station_longitude": 5.325283812313046, "end_station_id": "138", "end_station_name": "C. Sundts gate", "end_station_description": "Ved Nagelg\u00e5rden", "end_station_latitude": 60.39947506336557, "end_station_longitude": 5.308762204430565}, {"started_at": "2024-10-01 05:50:47.773000+00:00", "ended_at": "2024-10-01 05:58:58.615000+00:00", "duration": 490, "start_station_id": "807", "start_station_name": "Dreggsallmenningen Nord", "start_station_description": "Vis a vis Bryggen Museum", "start_station_latitude": 60.398656493732524, "start_station_longitude": 5.3221425864564935, "end_station_id": "219", "end_station_name": "Jonsvollkvartalet", "end_station_description": "Jonsvollsgaten", "end_station_latitude": 60.39267683527631, "end_station_longitude": 5.317308285189142}, {"started_at": "2024-10-01 05:50:50.001000+00:00", "ended_at": "2024-10-01 06:03:23.559000+00:00", "duration": 753, "start_station_id": "222", "start_station_name": "Sandviken Brygge", "start_station_description": "ved M\u00e5seskj\u00e6ret", "start_station_latitude": 60.41294568274233, "start_station_longitude": 5.320870309021842, "end_station_id": "138", "end_station_name": "C. Sundts gate", "end_station_description": "Ved Nagelg\u00e5rden", "end_station_latitude": 60.39947506336557, "end_station_longitude": 5.308762204430565}, {"started_at": "2024-10-01 05:50:53.315000+00:00", "ended_at": "2024-10-01 05:56:01.990000+00:00", "duration": 308, "start_station_id": "797", "start_station_name": "John Lunds plass", "start_station_description": "John Lunds plass", "start_station_latitude": 60.38824732496974, "start_station_longitude": 5.324558211682643, "end_station_id": "132", "end_station_name": "N\u00f8stetorget", "end_station_description": "Sukkerhusbryggen", "end_station_latitude": 60.39228413403305, "end_station_longitude": 5.314705281519707}, {"started_at": "2024-10-01 05:51:21.321000+00:00", "ended_at": "2024-10-01 05:57:48.819000+00:00", "duration": 387, "start_station_id": "24", "start_station_name": "Studentboligene", "start_station_description": "ved Gr\u00f8nneviken og KMD fakultetet", "start_station_latitude": 60.37831673774707, "start_station_longitude": 5.350897458652753, "end_station_id": "34", "end_station_name": "Cornerteateret", "end_station_description": " Ved BI", "end_station_latitude": 60.38246949877819, "end_station_longitude": 5.3260934892086595}, {"started_at": "2024-10-01 05:51:33.678000+00:00", "ended_at": "2024-10-01 05:56:26.228000+00:00", "duration": 292, "start_station_id": "75", "start_station_name": "Akvariet", "start_station_description": " Ved Akvariet og Havforskningsinstituttet", "start_station_latitude": 60.39987652272946, "start_station_longitude": 5.304686307890734, "end_station_id": "36", "end_station_name": "Torgallmenningen", "end_station_description": "Valkendorfsgaten / Torgallmenningen", "end_station_latitude": 60.39296632614153, "end_station_longitude": 5.323538420433351}, {"started_at": "2024-10-01 05:51:35.353000+00:00", "ended_at": "2024-10-01 06:07:49.581000+00:00", "duration": 974, "start_station_id": "638", "start_station_name": "Damsg\u00e5rdsallmenningen", "start_station_description": "Nede ved kai", "start_station_latitude": 60.386709149786796, "start_station_longitude": 5.299130112557805, "end_station_id": "33", "end_station_name": "H\u00f8gskulen p\u00e5 Vestlandet", "end_station_description": "Ved hovedinngang til skolen", "end_station_latitude": 60.369179844976586, "end_station_longitude": 5.349443793165847}, {"started_at": "2024-10-01 05:51:39.703000+00:00", "ended_at": "2024-10-01 05:56:51.427000+00:00", "duration": 311, "start_station_id": "83", "start_station_name": "Bergen jernbanestasjon", "start_station_description": "P\u00e5 h\u00f8yre side av hovedinngangen til Jernbanestasjonen", "start_station_latitude": 60.390414110522414, "start_station_longitude": 5.3326504538233905, "end_station_id": "816", "end_station_name": "\u00d8stre Murallmenningen nedre", "end_station_description": "Ved inngang G\u00e5gaten", "end_station_latitude": 60.395143864343254, "end_station_longitude": 5.320002322335455},